OBJECTID,Name,Location,District,Neighbourhood,Container_Type,Bin_Type,Longitude,Latitude
1,"Reciklažno dvorište Špansko","Ulica Dobriše Cesarića 2a","Stenjevec","Špansko - sjever","","Reciklažna dvorišta",15.906057000386905,45.803045999067756
2,"Reciklažno dvorište Trešnjevka sjever","Zagorska ulica 3","Trešnjevka - sjever","Ciglenica","","Reciklažna dvorišta",15.947008999595694,45.80792999943082
3,"Reciklažno dvorište Kajzerica","Žarka Dolinara 5","Novi Zagreb - zapad","Kajzerica","","Reciklažna dvorišta",15.964424437245675,45.780373804755904
4,"Reciklažno dvorište Jakuševec","Sajmišna cesta bb","Novi Zagreb - istok","Jakuševec","","Reciklažna dvorišta",16.023980999532544,45.76857299965276
5,"Reciklažno dvorište Dubrava","Osječka ulica 25","Donja Dubrava","\"30. svibnja 1990.\"","","Reciklažna dvorišta",16.05456299962836,45.82629499886784
6,"Reciklažno dvorište Prilesje","Prilesje 1c","Maksimir","Maksimir","","Reciklažna dvorišta",16.013721311053345,45.82453898113947
7,"Reciklažno dvorište Sesvete","Jelkovečka ulica bb","Sesvete","Sesvetska Sopnica","","Reciklažna dvorišta",16.114782000537655,45.82030199879923
8,"Mobilno reciklažno dvorište Brezovica (Prigradska)","Prigradska ulica III. odvojak","Brezovica","Brezovica","","Reciklažna dvorišta",15.919783133585211,45.7278115631678
9,"Mobilno reciklažno dvorište Trnje","Ulica Frana Folnegovića, preko puta kućnog broja 10","Trnje","Sigečica","","Reciklažna dvorišta",16.00777604099694,45.797870957723234
10,"Mobilno reciklažno dvorište Gornji grad - Medveščak","raskrižje ulica Horvatovac i Ružičnjak","Gornji Grad - Medveščak","Šalata","","Reciklažna dvorišta",15.987623300056704,45.826526499683006
11,"Mobilno reciklažno dvorište Podsused - Vrapče","Ulica Prigornica 2","Podsused - Vrapče","Podsused","","Reciklažna dvorišta",15.855472576922583,45.81713675135538
12,"Reciklažno dvorište Klara","Sisačka cesta 10","Novi Zagreb - zapad","Sveta Klara","","Reciklažna dvorišta",15.956048400595314,45.75386279903452
13,"Reciklažno dvorište Podsused - Vrapče (Vučak)","Kovinska 8a","Podsused - Vrapče","Podsused","","Reciklažna dvorišta",15.853807921004869,45.810137802951985
14,"Mobilno reciklažno dvorište Trešnjevka - jug","Ulica Marice Barić 6","Trešnjevka - jug","Jarun","","Reciklažna dvorišta",15.92787832590129,45.79387134361329
15,"Mobilno reciklažno dvorište Gornja Dubrava","Ulica Klin","Gornja Dubrava","Studentski grad","","Reciklažna dvorišta",16.06640209954406,45.83499539920746
16,"Reciklažno dvorište Žitnjak","Čulinečka cesta 275","Peščenica - Žitnjak","Resnik","","Reciklažna dvorišta",16.079832388140893,45.79513549496116
17,"Reciklažno dvorište Sesvete Jelkovec","Ulica Borisa Ulricha 5","Sesvete","Novi Jelkovec","","Reciklažna dvorišta",16.115031578291358,45.810289392300916
18,"Mobilno reciklažno dvorište Podsljeme (Zdenac)","Prilaz Kraljičinom zdencu kod kućnog broja 4","Podsljeme","Šestine","","Reciklažna dvorišta",15.94974200035511,45.85517679893794
19,"Mobilno reciklažno dvorište Brezovica (Donjodragonoška)","Donjodragonoška cesta, iza kućnog broja 8C","Brezovica","Dragonožec","","Reciklažna dvorišta",15.944498765261644,45.66894991274786
20,"Mobilno reciklažno dvorište Podsljeme (Bidrovečka)","Bidrovečka cesta kod kućnog broja 68","Podsljeme","Markuševec","","Reciklažna dvorišta",16.030233199902607,45.89488439944429
21,"Abramovićeva ulica 1, 10010, Zagreb, Grad Zagreb, HRV","Vrsta spremnika: STAKLO<br>Zemljopisna širina: 45.7626715<br>Zemljopisna dužina: 15.9931816","Novi Zagreb - istok","Dugave","Zvono","Staklo",15.99318160038909,45.76267149886032
23,"Albinijeva ulica 12, 10010, Zagreb, Grad Zagreb, HRV","Vrsta spremnika: STAKLO<br>Zemljopisna širina: 45.7660994<br>Zemljopisna dužina: 16.0061421","Novi Zagreb - istok","Dugave","Zvono","Staklo",16.006050904928333,45.765910419819804
24,"ALEJA ANTUNA AUGUSTINČIĆA 14, 10000 ZAGREB","Vrsta spremnika: STAKLO<br>Zemljopisna širina: 45.8190493<br>Zemljopisna dužina: 16.0269714","Maksimir","Maksimirska naselja","Zvono","Staklo",16.027117579792428,45.81907173046195
29,"Ulica Filipa Antolića Sobana 20, 10040, Zagreb, Grad Zagreb, HRV","Vrsta spremnika: STAKLO<br>Zemljopisna širina: 45.8514133<br>Zemljopisna dužina: 16.0550083","Gornja Dubrava","Granešina","Zvono","Staklo",16.05511022414598,45.85136472581574
30,"ALEJA MATIJE LJUBEKA 19, 10000 ZAGREB","Vrsta spremnika: STAKLO<br>Zemljopisna širina: 45.777756<br>Zemljopisna dužina: 15.9375519","Trešnjevka - jug","Jarun","Zvono","Staklo",15.937734289811926,45.77835087551484
31,"ALEJA POMORACA 23, 10020 ZAGREB","Vrsta spremnika: STAKLO<br>Zemljopisna širina: 45.7731481<br>Zemljopisna dužina: 15.9734244","Novi Zagreb - zapad","Siget","Zvono","Staklo",15.973424400198567,45.77314809945991
32,"ALEJA POMORACA 5, 10020 ZAGREB","Vrsta spremnika: STAKLO<br>Zemljopisna širina: 45.7732256<br>Zemljopisna dužina: 15.9777372","Novi Zagreb - zapad","Siget","Zvono","Staklo",15.977868628017923,45.77319005296969
33,"ALEJA POMORACA 9, 10020 ZAGREB","Vrsta spremnika: STAKLO<br>Zemljopisna širina: 45.7731769<br>Zemljopisna dužina: 15.9768681","Novi Zagreb - zapad","Siget","Zvono","Staklo",15.976868100266813,45.773176899270794
34,"ALEJA POMORACA 94, 10240 ZAGREB","Vrsta spremnika: STAKLO<br>Zemljopisna širina: 45.7735835<br>Zemljopisna dužina: 15.9718078","Novi Zagreb - zapad","Siget","Zvono","Staklo",15.971384010832413,45.77357601565871
35,"ALEJA SELJAČKE BUNE 40, PODSUSED, 10090 ZAGREB","Vrsta spremnika: STAKLO<br>Zemljopisna širina: 45.8213602<br>Zemljopisna dužina: 15.8326802","","Podsused","Zvono","Staklo",15.832680200403475,45.82136019961255
36,"ALEJA TIŠINE 9 , 10040 ZAGREB","Vrsta spremnika: STAKLO<br>Zemljopisna širina: 45.8410425<br>Zemljopisna dužina: 16.0450525","Gornja Dubrava","Gornja Dubrava","Zvono","Staklo",16.045009584914954,45.841248041338424
38,"AUGUSTA ŠENOE 52, VUGROVEC DONJI, SESVETE","Vrsta spremnika: STAKLO<br>Zemljopisna širina: 45.8811114<br>Zemljopisna dužina: 16.109314","Sesvete","Vugrovec","Zvono","Staklo",16.109126245023397,45.88079210353224
40,"Ulica Ivana Šibla 9, 10020, Zagreb, Grad Zagreb, HRV","Vrsta spremnika: STAKLO<br>Zemljopisna širina: 45.7779<br>Zemljopisna dužina: 15.9886767","Novi Zagreb - istok","Središće","Zvono","Staklo",15.987807664035083,45.7781506704044
41,"AVENIJA MARINA DRŽIĆA 19, 10000 ZAGREB","Vrsta spremnika: STAKLO<br>Zemljopisna širina: 45.8015795<br>Zemljopisna dužina: 15.9950192","Trnje","Kanal","Zvono","Staklo",15.995383980298618,45.80182632447414
44,"BARTOLIĆI 45, 10000 ZAGREB","Vrsta spremnika: STAKLO<br>Zemljopisna širina: 45.7844302<br>Zemljopisna dužina: 15.9244896","Trešnjevka - jug","Jarun","Zvono","Staklo",15.92385793995229,45.784211354023796
45,"BARTOLIĆI, 10000 ZAGREB","Vrsta spremnika: STAKLO<br>Zemljopisna širina: 45.7847669<br>Zemljopisna dužina: 15.9256268","Trešnjevka - jug","Jarun","","Staklo",15.925626799652436,45.78476689909565
47,"BELOVAR Varaždinska 37, 10363 BELOVAR","Vrsta spremnika: STAKLO<br>Zemljopisna širina: 45.882262<br>Zemljopisna dužina: 16.1755403","","Belovar","Zvono","Staklo",16.17554030050114,45.882261998983466
48,"BIDROVEČKA CESTA 30, 10000 ZAGREB","Vrsta spremnika: STAKLO<br>Zemljopisna širina: 45.8924333<br>Zemljopisna dužina: 16.02852","Podsljeme","Markuševec","Zvono","Staklo",16.028573644255683,45.89241836498054
49,"BIJENIČKA CESTA 30, 10000 ZAGREB","Vrsta spremnika: STAKLO<br>Zemljopisna širina: 45.8267053<br>Zemljopisna dužina: 15.9851342","Gornji Grad - Medveščak","Šalata","Zvono","Staklo",15.985139564973556,45.8264174656286
50,"BIJENIK 179a, 10000 ZAGREB","Vrsta spremnika: STAKLO<br>Zemljopisna širina: 45.8451115<br>Zemljopisna dužina: 15.9379358","Črnomerec","Medvedgrad","Zvono","Staklo",15.938600988202445,45.84715552176573
51,"BIJENIK 150, 10110 ZAGREB","Vrsta spremnika: STAKLO<br>Zemljopisna širina: 45.8452909<br>Zemljopisna dužina: 15.9368736","Črnomerec","Medvedgrad","Zvono","Staklo",15.936873599636623,45.84529089897017
52,"BILOGORSKA 1H, 10361 DUMOVEC","Vrsta spremnika: STAKLO<br>Zemljopisna širina: 45.8004548<br>Zemljopisna dužina: 16.1523795","","Dumovec","Zvono","Staklo",16.15410684259629,45.80149072932915
55,"BJELOVARSKA 50, CENTAR, SESVETE","Vrsta spremnika: STAKLO<br>Zemljopisna širina: 45.8239204<br>Zemljopisna dužina: 16.1205253","","Centar","Zvono","Staklo",16.120455562606974,45.824208246009995
58,"BLAGUŠKA ULICA 7, 10362 BLAGUŠA","Vrsta spremnika: STAKLO<br>Zemljopisna širina: 45.9221941<br>Zemljopisna dužina: 16.1312999","","Blaguša","Zvono","Staklo",16.131680773643495,45.92250755889871
59,"BLANJE 62, PODSUSED, 10090 ZAGREB","Vrsta spremnika: STAKLO<br>Zemljopisna širina: 45.816676<br>Zemljopisna dužina: 15.84569","","Podsused","Zvono","Staklo",15.845689999534496,45.8166759991324
61,"BOLNIČKA CESTA 34m, PERJAVICA - BORČEC 10090 ZAGREB","Vrsta spremnika: STAKLO<br>Zemljopisna širina: 45.815876<br>Zemljopisna dužina: 15.8940661","Podsused - Vrapče","Perjavica - Borčec","Zvono","Staklo",15.893851523435279,45.815905909933555
63,"Bolnička cesta 68, 10090, Zagreb, Grad Zagreb, HRV","Vrsta spremnika: STAKLO<br>Zemljopisna širina: 45.8173713<br>Zemljopisna dužina: 15.8891896","Podsused - Vrapče","Perjavica - Borčec","Zvono","Staklo",15.889315664284345,45.81713949862288
65,"BOSANSKA ULICA 37, 10000 ZAGREB","Vrsta spremnika: STAKLO<br>Zemljopisna širina: 45.8166489<br>Zemljopisna dužina: 15.9583819","Gornji Grad - Medveščak","\"Stjepan Radić\"","Zvono","Staklo",15.958381900320626,45.81664889956634
66,"BOŽIDARA MAGOVCA 18, 10000 ZAGREB","Vrsta spremnika: STAKLO<br>Zemljopisna širina: 45.7688967<br>Zemljopisna dužina: 15.9979017","Novi Zagreb - istok","Travno","Zvono","Staklo",15.997864149621249,45.768982764621036
67,"BRANKA PERICE 1-3, FERENŠČICA, PEŠČENICA - ŽITNJAK","Vrsta spremnika: STAKLO<br>Zemljopisna širina: 45.8007034<br>Zemljopisna dužina: 16.0208771","Peščenica - Žitnjak","Ferenščica","Zvono","Staklo",16.020606197215038,45.80037803231838
70,"BREG 2, ĐURĐEKOVEC, SESVETE","Vrsta spremnika: STAKLO<br>Zemljopisna širina: 45.8771413<br>Zemljopisna dužina: 16.1169566","","Đurđekovec","Zvono","Staklo",16.116774209765634,45.87720292182384
71,"Kraljevića Miroslava 17, 10360 Sesvete","Vrsta spremnika: STAKLO<br>Zemljopisna širina: 45.8295705<br>Zemljopisna dužina: 16.0977942","Sesvete","Staro Brestje","Zvono","Staklo",16.097912216735388,45.83240375556136
72,"Brezovička cesta 100, 10257, Brezovica, Zagreb, Grad Zagreb, HRV","Vrsta spremnika: STAKLO<br>Zemljopisna širina: 45.7241217<br>Zemljopisna dužina: 15.9066783","Brezovica","Brezovica","Zvono","Staklo",15.907112817916612,45.724829494663126
75,"BUDAKOVA 16, PEŠČENICA, PEŠČENICA - ŽITNJAK","Vrsta spremnika: STAKLO<br>Zemljopisna širina: 45.813583<br>Zemljopisna dužina: 16.017047","Peščenica - Žitnjak","Peščenica","Zvono","Staklo",16.016723793829698,45.8135624351432
77,"BUKOVAC 137, 10009 ZAGREB","Vrsta spremnika: STAKLO<br>Zemljopisna širina: 45.8443822<br>Zemljopisna dužina: 16.0087487","Maksimir","Bukovac","Zvono","Staklo",16.00874869989452,45.84438219883509
79,"BUKOVAČKA CESTA 223, 10000 ZAGREB","Vrsta spremnika: STAKLO<br>Zemljopisna širina: 45.8397549<br>Zemljopisna dužina: 16.001971","Maksimir","Remete","Zvono","Staklo",16.001857005782977,45.83967408203238
81,"BUŽANOVA 41, PEŠČENICA, PEŠČENICA - ŽITNJAK","Vrsta spremnika: STAKLO<br>Zemljopisna širina: 45.8128394<br>Zemljopisna dužina: 16.0058282","Peščenica - Žitnjak","Peščenica","Zvono","Staklo",16.006241259708087,45.812687968862704
82,"BUZINSKA CESTA 58, 10010 MJESNI ODBOR BUZIN","Vrsta spremnika: STAKLO<br>Zemljopisna širina: 45.7512041<br>Zemljopisna dužina: 15.9903961","Novi Zagreb - istok","Buzin","Zvono","Staklo",15.990396099865942,45.751204099623415
84,"Podolnica BB (GROBLJE CERJE), 10361 CERJE","Vrsta spremnika: STAKLO<br>Zemljopisna širina: 45.8286626<br>Zemljopisna dužina: 16.1912096","","Cerje - Sesvete","Zvono","Staklo",16.19064097181065,45.82877286930918
85,"Ulica Dobriše Cesarića 15, 10360, Sesvete, Zagreb, Grad Zagreb, HRV","Vrsta spremnika: STAKLO<br>Zemljopisna širina: 45.8307978<br>Zemljopisna dužina: 16.1120146","Sesvete","Gajišće","Zvono","Staklo",16.112379380510973,45.83082022606652
86,"PETE POLJANICE 10, 10040 ZAGREB","Vrsta spremnika: STAKLO<br>Zemljopisna širina: 45.8284688<br>Zemljopisna dužina: 16.0732976","Gornja Dubrava","Poljanice","Zvono","Staklo",16.07329759976897,45.82846879888546
89,"ČOČKIMarkuševečki popovec 111, 10000 ZAGREB","Vrsta spremnika: STAKLO<br>Zemljopisna širina: 45.8914467<br>Zemljopisna dužina: 16.033225","Podsljeme","Vidovec","Zvono","Staklo",16.033224999588803,45.8914466992558
90,"CRNOJEZERSKA ULICA 20, STENJEVEC - SJEVER, 10090 ZAGREB","Vrsta spremnika: STAKLO<br>Zemljopisna širina: 45.8163368<br>Zemljopisna dužina: 15.8850856","Podsused - Vrapče","Stenjevec - sjever","Zvono","Papir",15.885184841876905,45.81638353384794
91,"ČRNOMEREC 1, 10000 ZAGREB","Vrsta spremnika: STAKLO<br>Zemljopisna širina: 45.8151767<br>Zemljopisna dužina: 15.9361217","Črnomerec","\"Bartol Kašić\"","Zvono","Staklo",15.936102924623919,45.81513744081308
95,"CVJETNA CESTA 9, 10240 ZAGREB","Vrsta spremnika: STAKLO<br>Zemljopisna širina: 45.79255<br>Zemljopisna dužina: 15.9621817","Trnje","Savski kuti","Zvono","Staklo",15.96218169936562,45.79254999931742
96,"Dankovečka ulica 33, 10040, Zagreb, Grad Zagreb, HRV","Vrsta spremnika: STAKLO<br>Zemljopisna širina: 45.8346731<br>Zemljopisna dužina: 16.0560853","Gornja Dubrava","Studentski grad","Zvono","Staklo",16.055838537162497,45.83452359712568
97,"DANKOVEČKA ULICA 7, 10040 ZAGREB","Vrsta spremnika: STAKLO<br>Zemljopisna širina: 45.8306885<br>Zemljopisna dužina: 16.056203","Gornja Dubrava","Studentski grad","Zvono","Staklo",16.05636929671521,45.83077820711707
98,"Koledinečka 1, 10040 Zagreb","Vrsta spremnika: STAKLO<br>Zemljopisna širina: 45.8319892<br>Zemljopisna dužina: 16.0561701","Gornja Dubrava","Klaka","Zvono","Staklo",16.056454414284012,45.83214244587949
99,"Demerska ulica 33, 10257, Demerje, Zagreb, Grad Zagreb, HRV","Vrsta spremnika: STAKLO<br>Zemljopisna širina: 45.7325135<br>Zemljopisna dužina: 15.888604","Brezovica","Demerje","Zvono","Staklo",15.888604000409098,45.73251349961598
100,"DESPRIMSKA ULICA 14B, 10257 DESPRIM","Vrsta spremnika: STAKLO<br>Zemljopisna širina: 45.7238975<br>Zemljopisna dužina: 15.9008598","Brezovica","Brezovica","Zvono","Staklo",15.900873210444763,45.72389749963167
101,"DINARSKA 67, 10000 ZAGREB","Vrsta spremnika: STAKLO<br>Zemljopisna širina: 45.7943812<br>Zemljopisna dužina: 15.9349195","Trešnjevka - sjever","Ljubljanica","Zvono","Staklo",15.934919500339518,45.794381199320284
102,"DOMJANIĆA DRAGUTINA 11, ADAMOVEC, SESVETE","Vrsta spremnika: STAKLO<br>Zemljopisna širina: 45.8951059<br>Zemljopisna dužina: 16.1676984","","Adamovec","Zvono","Staklo",16.167945163053943,45.894900556911026
110,"DUBEČKA ULICA 94, 10040 ZAGREB","Vrsta spremnika: STAKLO<br>Zemljopisna širina: 45.8349458<br>Zemljopisna dužina: 16.0778477","Gornja Dubrava","Dubec","Zvono","Staklo",16.077847699898044,45.83494579956309
112,"FOČANSKA","Vrsta spremnika: STAKLO<br>Zemljopisna širina: 45.8262167<br>Zemljopisna dužina: 16.04523","Donja Dubrava","Donja Dubrava","Zvono","Staklo",16.0448732668148,45.8257681222202
113,"Dubravica 32, 10090, Zagreb, Grad Zagreb, HRV","Vrsta spremnika: STAKLO<br>Zemljopisna širina: 45.8211636<br>Zemljopisna dužina: 15.8709561","Podsused - Vrapče","Gornji Stenjevec","Zvono","Staklo",15.871159948394023,45.82107387568759
114,"DUBRAVICA 85A, GORNJI STENJEVEC, 10090 ZAGREB","Vrsta spremnika: STAKLO<br>Zemljopisna širina: 45.827779<br>Zemljopisna dužina: 15.8702648","Podsused - Vrapče","Gornji Stenjevec","Zvono","Staklo",15.870366724526495,45.82775283265619
117,"DUGUlica Ive Robića 3, 10020, Zagreb, Grad Zagreb, HRVOOTOČKA ULICA, 10020 ZAGREB","Vrsta spremnika: STAKLO<br>Zemljopisna širina: 45.7723333<br>Zemljopisna dužina: 15.94961","Novi Zagreb - zapad","Remetinec","Zvono","Staklo",15.949856762810732,45.77245677686482
119,"DUIĆA DANE 1, SAVICA ŠANCI, PEŠČENICA - ŽITNJAK","Vrsta spremnika: STAKLO<br>Zemljopisna širina: 45.788922<br>Zemljopisna dužina: 16.0055233","Peščenica - Žitnjak","Savica Šanci","Zvono","Staklo",16.00544819808853,45.78944381440936
120,"ANDRILOVEČKA 62, 10000 ZAGREB","Vrsta spremnika: STAKLO<br>Zemljopisna širina: 45.8030317<br>Zemljopisna dužina: 16.0194567","Peščenica - Žitnjak","Ferenščica","Zvono","Staklo",16.0196551831163,45.80318596076986
121,"FONOVA ULICA 4, 10000 ZAGREB","Vrsta spremnika: STAKLO<br>Zemljopisna širina: 45.8097356<br>Zemljopisna dužina: 15.9533609","Črnomerec","\"Ban Keglević\"","Zvono","Staklo",15.953360900306924,45.809735598952784
122,"FRANJČEVIĆEVA ULICA 22, DUMOVEC, SESVETE","Vrsta spremnika: STAKLO<br>Zemljopisna širina: 45.8046304<br>Zemljopisna dužina: 16.158918","","Dumovec","Zvono","Staklo",16.159459806796484,45.804615440644326
123,"FRANJE 2, KUPINEČKI KRALJEVEC","Vrsta spremnika: STAKLO<br>Zemljopisna širina: 45.6692827<br>Zemljopisna dužina: 15.840053","","Kupinečki Kraljevec - centar","","Staklo",15.840053000627327,45.66928269886287
124,"FRANJE WOELFLA 2, 10000 ZAGREB","Vrsta spremnika: STAKLO<br>Zemljopisna širina: 45.7874452<br>Zemljopisna dužina: 15.9208577","Trešnjevka - jug","Jarun","Zvono","Staklo",15.92075577601341,45.78746764330154
125,"FRATERŠČICA 112, 10110 ZAGREB","Vrsta spremnika: STAKLO<br>Zemljopisna širina: 45.8323047<br>Zemljopisna dužina: 15.9303315","Črnomerec","\"Sveti Duh\"","Zvono","Staklo",15.930331500613923,45.832304699083735
127,"FURJANIČKA ULICA 39, 10020 ZAGREB","Vrsta spremnika: STAKLO<br>Zemljopisna širina: 45.7602511<br>Zemljopisna dužina: 15.9293176","Novi Zagreb - zapad","Blato","","Staklo",15.929317599629234,45.76025109898512
128,"Stjepana Vojnovića 22, 10362 GAJEC","Vrsta spremnika: STAKLO<br>Zemljopisna širina: 45.8823293<br>Zemljopisna dužina: 16.1404998","","Gajec","Zvono","Staklo",16.140216826924462,45.88531763690425
129,"GAJEVA ULICA 60, GLAVNICA GORNJA, SESVETE","Vrsta spremnika: STAKLO<br>Zemljopisna širina: 45.9340899<br>Zemljopisna dužina: 16.1370088","","Glavnica Gornja","Zvono","Staklo",16.136633290386516,45.93399662724719
130,"GAJNIČKI VIDIKOVAC I. 8A, GORNJI STENJEVEC, 10090 ZAGREB","Vrsta spremnika: STAKLO<br>Zemljopisna širina: 45.819832<br>Zemljopisna dužina: 15.8731642","Podsused - Vrapče","Gornji Stenjevec","Zvono","Staklo",15.873164200173733,45.81983199921831
131,"ULICA AUGUSTA HARAMBAŠIĆA 53, 10000 ZAGREB","Vrsta spremnika: STAKLO<br>Zemljopisna širina: 45.8137084<br>Zemljopisna dužina: 16.0115744","Peščenica - Žitnjak","Peščenica","Zvono","Staklo",16.01173063907124,45.812564965646
132,"GALOVIĆEVA ULICA 6, 10000 ZAGREB","Vrsta spremnika: STAKLO<br>Zemljopisna širina: 45.8132083<br>Zemljopisna dužina: 16.0105217","Peščenica - Žitnjak","Peščenica","Zvono","Staklo",16.010779192165373,45.813383096939326
133,"Ulica Milovana Gavazzija 21, 10040, Zagreb, Grad Zagreb, HRV","Vrsta spremnika: STAKLO<br>Zemljopisna širina: 45.8379133<br>Zemljopisna dužina: 16.0633832","Gornja Dubrava","Studentski grad","Zvono","Staklo",16.06390891274552,45.83783107757543
134,"GAVELLINA ULICA 1B, 10135 ZAGREB","Vrsta spremnika: STAKLO<br>Zemljopisna širina: 45.79159<br>Zemljopisna dužina: 16.0084267","Peščenica - Žitnjak","Folnegovićevo naselje","Zvono","Staklo",16.008251015322692,45.79143476998345
136,"GLAVNA ULICA  6, 10362 VUGROVEC GORNJI","Vrsta spremnika: STAKLO<br>Zemljopisna širina: 45.8952677<br>Zemljopisna dužina: 16.0852845","","Goranec","Zvono","Staklo",16.08511015624752,45.89535823640457
137,"Kamenščica 4, 10360 GORANEC","Vrsta spremnika: STAKLO<br>Zemljopisna širina: 45.8973758<br>Zemljopisna dužina: 16.0780265","","Goranec","Zvono","Staklo",16.07802649987168,45.897375798877704
139,"KRUŽNA ULICA 35, Glavničica 10360","Vrsta spremnika: STAKLO<br>Zemljopisna širina: 45.8498495<br>Zemljopisna dužina: 16.2146792","","Glavničica","Zvono","Staklo",16.21265145020527,45.847697212290534
140,"GLAVNIČKA CESTA 21-23, GLAVNICA DONJA, SESVETE","Vrsta spremnika: STAKLO<br>Zemljopisna širina: 45.9373435<br>Zemljopisna dužina: 16.1434351","","Glavnica Donja","Zvono","Staklo",16.144604542641076,45.936962970656104
141,"Goljački breg 36, 10090, Zagreb, Grad Zagreb, HRV","Vrsta spremnika: STAKLO<br>Zemljopisna širina: 45.8203633<br>Zemljopisna dužina: 15.8473133","","Podsused","Zvono","Staklo",15.847656623156174,45.82043806990451
144,"GORNJEDRAGONOŽEČKA 31, 10253 GORNJI DRAGONOŽEC","Vrsta spremnika: STAKLO<br>Zemljopisna širina: 45.6477554<br>Zemljopisna dužina: 15.936968","","Dragonožec","","Staklo",15.936968000570554,45.647755399006016
145,"GOSPOČAK 86, ZAGREB","Vrsta spremnika: STAKLO<br>Zemljopisna širina: 45.8501803<br>Zemljopisna dužina: 16.0010323","Maksimir","Remete","Zvono","Staklo",16.00129381585737,45.85002523337052
148,"GRABERJE 51, 10110 ZAGREB","Vrsta spremnika: STAKLO<br>Zemljopisna širina: 45.8198669<br>Zemljopisna dužina: 15.922454","Črnomerec","Gornja Kustošija","Zvono","Staklo",15.92241644921309,45.81981829840518
149,"GRAČANI 8, 10000 ZAGREB","Vrsta spremnika: STAKLO<br>Zemljopisna širina: 45.8587596<br>Zemljopisna dužina: 15.971281","Podsljeme","Gračani","Zvono","Staklo",15.971468755194964,45.858867941717946
152,"GRADIŠĆANSKA ULICA 36, 10000 ZAGREB","Vrsta spremnika: STAKLO<br>Zemljopisna širina: 45.8102702<br>Zemljopisna dužina: 15.9382869","Črnomerec","\"Bartol Kašić\"","Zvono","Staklo",15.938362002221258,45.81023654620612
153,"Granešina 33A, 10040, Zagreb, Grad Zagreb, HRV","Vrsta spremnika: STAKLO<br>Zemljopisna širina: 45.8506067<br>Zemljopisna dužina: 16.0526883","Gornja Dubrava","Granešina","Zvono","Staklo",16.052688300212534,45.85060669888277
154,"Ulica Franje Fuisa 6, 10110, Zagreb, Grad Zagreb, HRV","Vrsta spremnika: STAKLO<br>Zemljopisna širina: 45.7870226<br>Zemljopisna dužina: 15.9382975","Trešnjevka - jug","Horvati - Srednjaci","Zvono","Staklo",15.938297499432492,45.78703288668556
155,"Gredice 157, 10110, Zagreb, Grad Zagreb, HRV","Vrsta spremnika: STAKLO<br>Zemljopisna širina: 45.7823726<br>Zemljopisna dužina: 15.939939","Trešnjevka - jug","Horvati - Srednjaci","Zvono","Staklo",15.939788796785207,45.782443679767766
156,"Ulica Franje Fuisa 2, 10110, Zagreb, Grad Zagreb, HRV","Vrsta spremnika: STAKLO<br>Zemljopisna širina: 45.7870376<br>Zemljopisna dužina: 15.9393758","Trešnjevka - jug","Horvati - Srednjaci","Zvono","Staklo",15.939394575223702,45.78703759903501
158,"GRIČKA ULICA 4, 10360 DOBRODOL","Vrsta spremnika: STAKLO<br>Zemljopisna širina: 45.8404124<br>Zemljopisna dužina: 16.1089869","Sesvete","Dobrodol","Zvono","Staklo",16.109292672340747,45.840419873993575
161,"HAMIĆI 7, 10000 ZAGREB","Vrsta spremnika: STAKLO<br>Zemljopisna širina: 45.8671331<br>Zemljopisna dužina: 16.0159529","Podsljeme","Markuševec","Zvono","Staklo",16.016234531572575,45.867271308169066
163,"Havidička ulica 59, 10257, Havidić Selo, Zagreb, Grad Zagreb, HRV","Vrsta spremnika: STAKLO<br>Zemljopisna širina: 45.6233418<br>Zemljopisna dužina: 15.9341071","","Havidići","Zvono","Staklo",15.934308265830888,45.62328739960792
164,"HEČIMOVIĆEVA ULICA 15, 10000 ZAGREB","Vrsta spremnika: STAKLO<br>Zemljopisna širina: 45.7913804<br>Zemljopisna dužina: 15.9409798","Trešnjevka - jug","Horvati - Srednjaci","Zvono","Staklo",15.94088055863946,45.79119337584394
166,"HERCEGOVAČKA ULICA 108, 10000 ZAGREB","Vrsta spremnika: STAKLO<br>Zemljopisna širina: 45.8222167<br>Zemljopisna dužina: 15.9596063","Gornji Grad - Medveščak","\"Stjepan Radić\"","Zvono","Staklo",15.958855281276005,45.82138676970161
168,"HORVAĆANSKA CESTA 55, 10000 ZAGREB","Vrsta spremnika: STAKLO<br>Zemljopisna širina: 45.7880476<br>Zemljopisna dužina: 15.9408778","Trešnjevka - jug","Horvati - Srednjaci","Zvono","Staklo",15.940963631034712,45.788013932712694
170,"HORVATI 190, 10436 HORVATI","Vrsta spremnika: STAKLO<br>Zemljopisna širina: 45.7139747<br>Zemljopisna dužina: 15.8172306","","Horvati","Zvono","Staklo",15.816659289229888,45.71372935861047
171,"HORVATI 216, 10436 HORVATI","Vrsta spremnika: STAKLO<br>Zemljopisna širina: 45.7111255<br>Zemljopisna dužina: 15.8104552","","Horvati","Zvono","Staklo",15.81045519993391,45.7111254993092
172,"HORVATOVAC 11, 10000 ZAGREB","Vrsta spremnika: STAKLO<br>Zemljopisna širina: 45.8187053<br>Zemljopisna dužina: 15.9933577","Gornji Grad - Medveščak","Voćarska","Zvono","Staklo",15.993411343828724,45.81878754873328
173,"HORVATOVAC 58, 10000 ZAGREB","Vrsta spremnika: STAKLO<br>Zemljopisna širina: 45.8217073<br>Zemljopisna dužina: 15.9911315","Gornji Grad - Medveščak","Voćarska","Zvono","Staklo",15.991131499906393,45.82170729967484
175,"HRELIĆKA ULICA 78, 1010 ZAGREB","Vrsta spremnika: STAKLO<br>Zemljopisna širina: 45.7611569<br>Zemljopisna dužina: 16.0065304","Novi Zagreb - istok","Hrelić","Zvono","Staklo",16.00653040042325,45.76115689900873
176,"HRGOVIĆI 95, 10000 ZAGREB","Vrsta spremnika: STAKLO<br>Zemljopisna širina: 45.7821182<br>Zemljopisna dužina: 15.9268552","Trešnjevka - jug","Jarun","Zvono","Staklo",15.92673852334778,45.78219582681202
177,"Hribarov prilaz 10, 10010, Zagreb, Grad Zagreb, HRV","Vrsta spremnika: STAKLO<br>Zemljopisna širina: 45.764479<br>Zemljopisna dužina: 15.9924949","Novi Zagreb - istok","Dugave","Zvono","Staklo",15.992494900097034,45.76447899946742
178,"Vajdin vijenac 16, 10010, Zagreb, Grad Zagreb, HRV","Vrsta spremnika: STAKLO<br>Zemljopisna širina: 45.7666232<br>Zemljopisna dužina: 15.9928275","Novi Zagreb - istok","Dugave","Zvono","Staklo",15.992827499392105,45.76662319915646
183,"ULICA SLAVOLJUBA BULVANA , 10000 ZAGREB","Vrsta spremnika: STAKLO<br>Zemljopisna širina: 45.81628<br>Zemljopisna dužina: 16.0288183","Maksimir","Maksimirska naselja","Zvono","Staklo",16.0286748022541,45.81598837241018
184,"I.DUMOVEČKI LUG 6, DUMOVEC, SESVETE","Vrsta spremnika: STAKLO<br>Zemljopisna širina: 45.8056682<br>Zemljopisna dužina: 16.1557903","","Dumovec","Zvono","Staklo",16.15435263575486,45.80596735866612
186,"Ilica 298, 10000, Zagreb, Grad Zagreb, HRV","Vrsta spremnika: STAKLO<br>Zemljopisna širina: 45.8143114<br>Zemljopisna dužina: 15.9307795","Črnomerec","Kustošija - centar","Zvono","Staklo",15.928590817227096,45.81430766073127
188,"Ilica 288, 10000, Zagreb, Grad Zagreb, HRV","Vrsta spremnika: STAKLO<br>Zemljopisna širina: 45.8141817<br>Zemljopisna dužina: 15.9290283","Črnomerec","Kustošija - centar","Zvono","Staklo",15.929489639865439,45.81403588048725
191,"Ilirska grana 3, 10110, Zagreb, Grad Zagreb, HRV","Vrsta spremnika: STAKLO<br>Zemljopisna širina: 45.7930411<br>Zemljopisna dužina: 15.9365273","Trešnjevka - jug","Gajevo","Zvono","Staklo",15.936605084422371,45.79305980067951
192,"ISCE 15, GRAČANI, PODSLJEME","Vrsta spremnika: STAKLO<br>Zemljopisna širina: 45.856235<br>Zemljopisna dužina: 15.9700208","Podsljeme","Gračani","Zvono","Staklo",15.970388263203368,45.8556474931356
194,"IVANA MAŽURANIĆA 152 , 10362 KAŠINA","Vrsta spremnika: STAKLO<br>Zemljopisna širina: 45.9233887<br>Zemljopisna dužina: 16.1193217","","Kašina","Zvono","Staklo",16.11958455697194,45.922981954252066
195,"IVANIĆGRADSKA ULICA 24, 10000 ZAGREB","Vrsta spremnika: STAKLO<br>Zemljopisna širina: 45.8075333<br>Zemljopisna dužina: 16.01817","Peščenica - Žitnjak","Volovčica","Zvono","Staklo",16.0176952493915,45.808010067906885
196,"IVANIĆGRADSKA ULICA 46, 10000 ZAGREB","Vrsta spremnika: STAKLO<br>Zemljopisna širina: 45.8051117<br>Zemljopisna dužina: 16.0199217","Peščenica - Žitnjak","Volovčica","Zvono","Staklo",16.019803682193174,45.804930331589816
198,"IVEKOVIĆEVA 35, FERENŠČICA, PEŠČENICA - ŽITNJAK","Vrsta spremnika: STAKLO<br>Zemljopisna širina: 45.8000518<br>Zemljopisna dužina: 16.0171984","Peščenica - Žitnjak","Ferenščica","Zvono","Staklo",16.017198399856508,45.80005179921931
201,"JADRANSKA ULICA 21, 10000 ZAGREB","Vrsta spremnika: STAKLO<br>Zemljopisna širina: 45.8169032<br>Zemljopisna dužina: 15.9549004","Gornji Grad - Medveščak","\"Stjepan Radić\"","Zvono","Staklo",15.954900399892525,45.816903199658974
203,"ULICA ANTE JAKŠIĆA 37 , 10000 ZAGREB","Vrsta spremnika: STAKLO<br>Zemljopisna širina: 45.8133433<br>Zemljopisna dužina: 16.0250058","Peščenica - Žitnjak","\"Bruno Bušić\"","Zvono","Staklo",16.02506480821534,45.81331993099261
204,"Milana Pavelića 1B","Vrsta spremnika: STAKLO<br>Zemljopisna širina: 45.811847<br>Zemljopisna dužina: 16.0208508","Peščenica - Žitnjak","\"Bruno Bušić\"","Zvono","Staklo",16.018860600951562,45.81209564811578
205,"Jakuševečka ulica 5, 10010, Zagreb, Grad Zagreb, HRV","Vrsta spremnika: STAKLO<br>Zemljopisna širina: 45.7609698<br>Zemljopisna dužina: 16.0107361","Novi Zagreb - istok","Jakuševec","Zvono","Staklo",16.007930508763682,45.7609567008448
206,"Bartolići 16, 10110, Zagreb, Grad Zagreb, HRV","Vrsta spremnika: STAKLO<br>Zemljopisna širina: 45.78528<br>Zemljopisna dužina: 15.925235","Trešnjevka - jug","Jarun","Zvono","Staklo",15.925648059693868,45.785029360245474
207,"Jarun 49, 10110, Zagreb, Grad Zagreb, HRV","Vrsta spremnika: STAKLO<br>Zemljopisna širina: 45.7859378<br>Zemljopisna dužina: 15.9242481","Trešnjevka - jug","Jarun","Zvono","Staklo",15.924156234931077,45.7859209656343
210,"JELENOVAC 52, 10000 ZAGREB","Vrsta spremnika: STAKLO<br>Zemljopisna širina: 45.8307573<br>Zemljopisna dužina: 15.9524168","Črnomerec","Jelenovac","Zvono","Staklo",15.952416800016149,45.83075729882212
212,"JELKOVEČKA ULICA 10, 10375 IVANJA REKA","Vrsta spremnika: STAKLO<br>Zemljopisna širina: 45.8220448<br>Zemljopisna dužina: 16.1164891","","Jelkovec","Zvono","Staklo",16.11648909958539,45.8220447993007
213,"JESENOVEČKA CESTA 44, JESENOVEC, SESVETE","Vrsta spremnika: STAKLO<br>Zemljopisna širina: 45.9177395<br>Zemljopisna dužina: 16.1457438","","Jesenovec","Zvono","Staklo",16.14556141004339,45.91745773411168
217,"JURJEVSKA ULICA 37, 10000 ZAGREB","Vrsta spremnika: STAKLO<br>Zemljopisna širina: 45.8252064<br>Zemljopisna dužina: 15.9756607","Gornji Grad - Medveščak","Gornji grad","Zvono","Staklo",15.975660699868882,45.82520639908321
218,"JURJEVSKA ULICA 51, 10000 ZAGREB","Vrsta spremnika: STAKLO<br>Zemljopisna širina: 45.8274754<br>Zemljopisna dužina: 15.9753335","Gornji Grad - Medveščak","Gornji grad","Zvono","Staklo",15.97533349947842,45.82747539945263
221,"Ulica grada Gualda Tadina 25, 10000, Zagreb, Grad Zagreb, HRV","Vrsta spremnika: STAKLO<br>Zemljopisna širina: 45.8170752<br>Zemljopisna dužina: 15.941999","Črnomerec","\"Sveti Duh\"","Zvono","Staklo",15.942417424058213,45.816491952544716
223,"KANALSKA ULICA, 10251 ZAGREB","Vrsta spremnika: STAKLO<br>Zemljopisna širina: 45.7545117<br>Zemljopisna dužina: 15.912705","Novi Zagreb - zapad","Blato","Zvono","Staklo",15.912560160186262,45.75469135982447
224,"KARAŽNIK 47, GORNJI STENJEVEC, 10090 ZAGREB","Vrsta spremnika: STAKLO<br>Zemljopisna širina: 45.817187<br>Zemljopisna dužina: 15.8640392","Podsused - Vrapče","Gornji Stenjevec","Zvono","Staklo",15.864039200109604,45.81718699880332
225,"Karlovačka cesta 60, 10020, Zagreb, Grad Zagreb, HRV","Vrsta spremnika: STAKLO<br>Zemljopisna širina: 45.7628733<br>Zemljopisna dužina: 15.9159717","Novi Zagreb - zapad","Blato","Zvono","Staklo",15.915751758474306,45.76269366459547
226,"Karlovačka cesta 88, 10020, Zagreb, Grad Zagreb, HRV","Vrsta spremnika: STAKLO<br>Zemljopisna širina: 45.7589322<br>Zemljopisna dužina: 15.9014766","Novi Zagreb - zapad","Blato","Zvono","Staklo",15.901106455117098,45.75881991993657
227,"KARLOVAČKA ULICA 2, 10375 IVANJA REKA","Vrsta spremnika: STAKLO<br>Zemljopisna širina: 45.8261726<br>Zemljopisna dužina: 16.1115271","Sesvete","Centar","Zvono","Staklo",16.11146809154834,45.82621745638283
228,"KARLOVAČKA ULICA 12, 10360 SESvETE","Vrsta spremnika: STAKLO<br>Zemljopisna širina: 45.8253801<br>Zemljopisna dužina: 16.1120099","Sesvete","Centar","Zvono","Staklo",16.111891883320816,45.82535393220361
230,"KATIĆEV PRILAZ 9, 10010 ZAGREB","Vrsta spremnika: STAKLO<br>Zemljopisna širina: 45.7746103<br>Zemljopisna dužina: 15.9988329","Novi Zagreb - istok","Utrine","Zvono","Staklo",15.998956282104553,45.77459907449613
231,"KAUZLARIĆEV PRILAZ 17, 10010 ZAGREB","Vrsta spremnika: STAKLO<br>Zemljopisna širina: 45.7649805<br>Zemljopisna dužina: 16.0049349","Novi Zagreb - istok","Dugave","Zvono","Staklo",16.004934900236446,45.76498049935016
232,"KAŽOTIĆEV TRG 1, 10000 ZAGREB","Vrsta spremnika: STAKLO<br>Zemljopisna širina: 45.8159162<br>Zemljopisna dužina: 16.0220415","Maksimir","Maksimirska naselja","Zvono","Staklo",16.022041499968235,45.81591619955887
233,"KELEKOVA ULICA 18A, SESVETSKA SOPNICA, SESVETE","Vrsta spremnika: STAKLO<br>Zemljopisna širina: 45.8191739<br>Zemljopisna dužina: 16.1042143","Sesvete","Sesvetska Sopnica","Zvono","Staklo",16.10394607868922,45.81891967362249
235,"KLIŠKA ULICA 2, 10000 ZAGREB","Vrsta spremnika: STAKLO<br>Zemljopisna širina: 45.7939501<br>Zemljopisna dužina: 15.9539509","Trešnjevka - jug","Knežija","Zvono","Staklo",15.953902620729426,45.79375373331847
236,"KOBILJAČKA CESTA 73, 10361 BUDENEC","Vrsta spremnika: STAKLO<br>Zemljopisna širina: 45.8222632<br>Zemljopisna dužina: 16.1603375","","Kobiljak","Zvono","Staklo",16.160353593172857,45.82207627957004
237,"KORANSKA ULICA 1C, 10000 ZAGREB","Vrsta spremnika: STAKLO<br>Zemljopisna širina: 45.8024<br>Zemljopisna dužina: 15.9680533","Trnje","Martinovka","Zvono","Staklo",15.968804317903112,45.80250471159064
238,"KRALJEVEC 87, 10009 ZAGREB","Vrsta spremnika: STAKLO<br>Zemljopisna širina: 45.8365207<br>Zemljopisna dužina: 15.967421","Gornji Grad - Medveščak","Kraljevec","Zvono","Staklo",15.966948930773048,45.83774656371807
239,"KRALJEVEČKI BREGI 170, STARJAK","Vrsta spremnika: STAKLO<br>Zemljopisna širina: 45.6602357<br>Zemljopisna dužina: 15.871512","","Kupinečki Kraljevec I.","Zvono","Staklo",15.871512000381776,45.66023569945586
240,"KRALJEVEČKI BREGI 157, STARJAK","Vrsta spremnika: STAKLO<br>Zemljopisna širina: 45.6567894<br>Zemljopisna dužina: 15.8708798","","Kupinečki Kraljevec I.","Zvono","Staklo",15.870879799930183,45.65678939928342
244,"KRAPINSKA ULICA 58, 10000 ZAGREB","Vrsta spremnika: STAKLO<br>Zemljopisna širina: 45.802505<br>Zemljopisna dužina: 15.9501467","Trešnjevka - sjever","\"Silvije Strahimir Kranjčević\"","Zvono","Staklo",15.950211072922242,45.8025031298285
245,"KRČEC 51, 10090 ZAGREB","Vrsta spremnika: STAKLO<br>Zemljopisna širina: 45.8413109<br>Zemljopisna dužina: 15.9160651","Črnomerec","Gornja Kustošija","Zvono","Staklo",15.915163877349231,45.84116328344937
249,"Labudovac 2","Vrsta spremnika: STAKLO<br>Zemljopisna širina: 45.8224662<br>Zemljopisna dužina: 15.997054","Maksimir","\"Dinko Šimunović\"","Zvono","Staklo",15.997738634466328,45.82245732051763
250,"KROTOVICA 15, 10040 ZAGREB","Vrsta spremnika: STAKLO<br>Zemljopisna širina: 45.8328967<br>Zemljopisna dužina: 16.0689373","Gornja Dubrava","Trnovčica","Zvono","Plastika",16.069082139293386,45.83285184708099
251,"Trnovčica 1, 10040 ZAGREB","Vrsta spremnika: STAKLO<br>Zemljopisna širina: 45.8332117<br>Zemljopisna dužina: 16.0663383","Gornja Dubrava","Trnovčica","Zvono","Staklo",16.066338299903162,45.833211699526174
253,"KRUŽNA ULICA 80, 10000 ZAGREB","Vrsta spremnika: STAKLO<br>Zemljopisna širina: 45.7900338<br>Zemljopisna dužina: 15.9228614","Trešnjevka - jug","Jarun","Zvono","Staklo",15.922866764890271,45.7900412801655
256,"KUSOVA ULICA 1, 10361 DRENČEC","Vrsta spremnika: STAKLO<br>Zemljopisna širina: 45.8383884<br>Zemljopisna dužina: 16.2034354","","Drenčec","Zvono","Staklo",16.20343540008039,45.8383883988671
257,"KUSTOŠIJANSKA ULICA 21, 10110 ZAGREB","Vrsta spremnika: STAKLO<br>Zemljopisna širina: 45.8154365<br>Zemljopisna dužina: 15.9267992","Črnomerec","Gornja Kustošija","Zvono","Staklo",15.926750920404409,45.8153205948469
259,"KUSTOŠIJANSKA ULICA 279, 10110 ZAGREB","Vrsta spremnika: STAKLO<br>Zemljopisna širina: 45.8309469<br>Zemljopisna dužina: 15.9217728","Črnomerec","Gornja Kustošija","Zvono","Staklo",15.92187204157859,45.83090765218072
260,"Palinovečka ulica 19D, 10110, Zagreb, Grad Zagreb, HRV","Vrsta spremnika: STAKLO<br>Zemljopisna širina: 45.7896198<br>Zemljopisna dužina: 15.9174475","Trešnjevka - jug","Vrbani","Zvono","Staklo",15.916975431556265,45.789163446244835
261,"Kutnjački put 8, 10110, Zagreb, Grad Zagreb, HRV","Vrsta spremnika: STAKLO<br>Zemljopisna širina: 45.7907034<br>Zemljopisna dužina: 15.9157294","Trešnjevka - jug","Vrbani","Zvono","Staklo",15.917413827239479,45.789705609367054
262,"KUZMINEČKA ULICA 49, 10104 ZAGREB","Vrsta spremnika: STAKLO<br>Zemljopisna širina: 45.7900317<br>Zemljopisna dužina: 15.9109017","Trešnjevka - jug","Vrbani","Zvono","Staklo",15.911097501401779,45.790133629511644
263,"Kuzminečka ulica 5, 10110, Zagreb, Grad Zagreb, HRV","Vrsta spremnika: STAKLO<br>Zemljopisna širina: 45.7913767<br>Zemljopisna dužina: 15.9117597","Trešnjevka - jug","Vrbani","Zvono","Staklo",15.911349322549512,45.79089791820671
264,"LADISLAVA ŠTRITOFA 18, ZAGREB","Vrsta spremnika: STAKLO<br>Zemljopisna širina: 45.7884766<br>Zemljopisna dužina: 15.9365543","Trešnjevka - jug","Gajevo","Zvono","Staklo",15.936425553593182,45.7886814001257
266,"ULICA JOZE LAURENČIĆA 18, 10000 ZAGREB","Vrsta spremnika: STAKLO<br>Zemljopisna širina: 45.7937454<br>Zemljopisna dužina: 16.0089366","Peščenica - Žitnjak","Folnegovićevo naselje","Zvono","Staklo",16.00912033115729,45.79327318383978
268,"LESKOVAČKI BRIJEG BB, HRVATSKI LESKOVAC, NOVI ZAGREB-ZAPAD","Vrsta spremnika: STAKLO<br>Zemljopisna širina: 45.742358<br>Zemljopisna dužina: 15.887581","Novi Zagreb - zapad","Hrvatski Leskovac","Zvono","Staklo",15.887581000005607,45.74235799925306
270,"LISTOPADSKA ULICA 13, 10000 ZAGREB","Vrsta spremnika: STAKLO<br>Zemljopisna širina: 45.7930412<br>Zemljopisna dužina: 15.9185779","Trešnjevka - jug","Vrbani","Zvono","Staklo",15.918384781017757,45.79309917428378
273,"LOŠINJSKA ULICA 33, 10000 ZAGREB","Vrsta spremnika: STAKLO<br>Zemljopisna širina: 45.7986402<br>Zemljopisna dužina: 15.9368814","Trešnjevka - sjever","Pongračevo","Zvono","Staklo",15.936540759308267,45.79856352953523
275,"Ulica Mate Lovraka 19, 10040, Zagreb, Grad Zagreb, HRV","Vrsta spremnika: STAKLO<br>Zemljopisna širina: 45.8403983<br>Zemljopisna dužina: 16.0609233","Gornja Dubrava","Studentski grad","Zvono","Staklo",16.06116335768398,45.84038054797636
276,"DONJE SVETICE 79C, 10000 ZAGREB","Vrsta spremnika: STAKLO<br>Zemljopisna širina: 45.80582<br>Zemljopisna dužina: 16.0155483","Peščenica - Žitnjak","Donje Svetice","Zvono","Staklo",16.015474538983707,45.805834022650906
277,"MAGAZINSKA CESTA, 10000 ZAGREB","Vrsta spremnika: STAKLO<br>Zemljopisna širina: 45.8078367<br>Zemljopisna dužina: 15.960815","Trešnjevka - sjever","\"Samoborček\"","Zvono","Staklo",15.960808293950665,45.807819871685886
278,"MAKSIMIRSKA CESTA 75, 10000 ZAGREB","Vrsta spremnika: STAKLO<br>Zemljopisna širina: 45.8170332<br>Zemljopisna dužina: 16.0059052","Maksimir","Ružmarinka","Zvono","Staklo",16.00590519996326,45.81703319888295
279,"MAKSIMIRSKO NASELJE III. 4, 10000 ZAGREB","Vrsta spremnika: STAKLO<br>Zemljopisna širina: 45.8167874<br>Zemljopisna dužina: 16.0265959","Maksimir","Maksimirska naselja","Zvono","Staklo",16.026362547922876,45.81681170110303
281,"MARKUŠEVEČKA TRNAVA 85, 10000 ZAGREB","Vrsta spremnika: STAKLO<br>Zemljopisna širina: 45.8895386<br>Zemljopisna dužina: 16.0231574","Podsljeme","Markuševec","Zvono","Staklo",16.023153376281446,45.88959740758503
282,"MAROCHINIJEV PUT 3, 10362 PARUŽEVINA","Vrsta spremnika: STAKLO<br>Zemljopisna širina: 45.8849367<br>Zemljopisna dužina: 16.1276432","","Paruževina","Zvono","Staklo",16.12764320053741,45.88493669912068
283,"ULICA FRA GRGE MARTIĆA 24, 10009 ZAGREB","Vrsta spremnika: STAKLO<br>Zemljopisna širina: 45.8124331<br>Zemljopisna dužina: 15.9910872","Donji Grad","\"Matko Laginja\"","Zvono","Staklo",15.991006734309233,45.812324666949934
284,"MARTIĆEVA ULICA, 10000 ZAGREB","Vrsta spremnika: STAKLO<br>Zemljopisna širina: 45.8126433<br>Zemljopisna dužina: 15.9938163","Donji Grad","\"Pavao Šubić\"","Zvono","Staklo",15.993816299468758,45.812643298856074
285,"MATIČKI 27, ZAGREB","Vrsta spremnika: STAKLO<br>Zemljopisna širina: 45.688553<br>Zemljopisna dužina: 15.8367222","","Kupinečki Kraljevec II.","Zvono","Staklo",15.836175029808771,45.68831316785834
287,"MATUNOVA 3, 1010 ZAGREB","Vrsta spremnika: STAKLO<br>Zemljopisna širina: 45.7593605<br>Zemljopisna dužina: 15.999841","Novi Zagreb - istok","Hrelić","Zvono","Staklo",15.99984099938346,45.75936049891676
289,"MEĐIMURSKA ULICA 21, 10000 ZAGREB","Vrsta spremnika: STAKLO<br>Zemljopisna širina: 45.8098701<br>Zemljopisna dužina: 15.9504265","Črnomerec","\"Ban Keglević\"","Zvono","Staklo",15.952373783560462,45.80971679118367
292,"MEDVEŠČAK 22, 10009 ZAGREB","Vrsta spremnika: STAKLO<br>Zemljopisna širina: 45.821595<br>Zemljopisna dužina: 15.9799361","Gornji Grad - Medveščak","Medveščak","Zvono","Staklo",15.979936100625599,45.821594998867425
293,"MEDVEŠČAK 47, 10009 ZAGREB","Vrsta spremnika: STAKLO<br>Zemljopisna širina: 45.82241<br>Zemljopisna dužina: 15.9796196","Gornji Grad - Medveščak","Medveščak","Zvono","Staklo",15.97961959964024,45.82240999906338
294,"MEDVEŠČAK 73, 10009 ZAGREB","Vrsta spremnika: STAKLO<br>Zemljopisna širina: 45.8251614<br>Zemljopisna dužina: 15.9805316","Gornji Grad - Medveščak","Medveščak","Zvono","Staklo",15.980188277102615,45.82463057273465
295,"GUPČEVA ZVIJEZDA 4B, 10000 ZAGREB","Vrsta spremnika: STAKLO<br>Zemljopisna širina: 45.82806<br>Zemljopisna dužina: 15.979905","Gornji Grad - Medveščak","Gupčeva zvijezda","Zvono","Staklo",15.979904999978144,45.828059999608016
296,"MELINIŠĆE 13, 10000 ZAGREB","Vrsta spremnika: STAKLO<br>Zemljopisna širina: 45.8409938<br>Zemljopisna dužina: 16.0209783","Maksimir","Dotrščina","Zvono","Staklo",16.020641683307442,45.84083964236202
297,"Ulica Mije Šiloboda Bolšića 4, Zagreb","Vrsta spremnika: STAKLO<br>Zemljopisna širina: 45.7649692<br>Zemljopisna dužina: 15.9895287","Novi Zagreb - istok","Sloboština","Zvono","Staklo",15.990172430251844,45.76533219456237
298,"TRG MARKA MARULIĆA 10 / VODNIKOVA","Vrsta spremnika: STAKLO<br>Zemljopisna širina: 45.8055907<br>Zemljopisna dužina: 15.9711824","Donji Grad","MIMARA","Zvono","Staklo",15.969422870411863,45.80553460627309
299,"MIKULIĆI 208, ZAGREB","Vrsta spremnika: STAKLO<br>Zemljopisna širina: 45.8528762<br>Zemljopisna dužina: 15.9351248","Črnomerec","Medvedgrad","Zvono","Staklo",15.935124799540155,45.852876198936656
300,"Glavića Balde, 10110 ZAGREB","Vrsta spremnika: STAKLO<br>Zemljopisna širina: 45.8382463<br>Zemljopisna dužina: 15.9278774","Črnomerec","Medvedgrad","Zvono","Staklo",15.92787203577937,45.838093068732825
302,"MILKE TRNINE 5, FOLNEGOVIĆEVO NASELJE, PEŠČENICA - ŽITNJAK","Vrsta spremnika: STAKLO<br>Zemljopisna širina: 45.7923241<br>Zemljopisna dužina: 16.0041885","Peščenica - Žitnjak","Folnegovićevo naselje","Zvono","Staklo",16.00414960838853,45.79199494266897
303,"MLINARSKA CESTA 47, 10000 ZAGREB","Vrsta spremnika: STAKLO<br>Zemljopisna širina: 45.8282343<br>Zemljopisna dužina: 15.9777258","Gornji Grad - Medveščak","Nova Ves","Zvono","Staklo",15.978090580269267,45.82818944325615
304,"MLINOVI 118F, 10000 ZAGREB","Vrsta spremnika: STAKLO<br>Zemljopisna širina: 45.8509392<br>Zemljopisna dužina: 15.9617444","Podsljeme","Šestine","Zvono","Staklo",15.961744400450005,45.850939199103124
305,"Mrakov breg 1, 10257, Kupinečki Kraljevec, Zagreb, Grad Zagreb, HRV","Vrsta spremnika: STAKLO<br>Zemljopisna širina: 45.6738123<br>Zemljopisna dužina: 15.8721991","Brezovica","Kupinečki Kraljevec I.","Zvono","Papir",15.872665805008971,45.67303638607578
307,"NAŠIČKA ULICA 16, 10000 ZAGREB","Vrsta spremnika: STAKLO<br>Zemljopisna širina: 45.7908455<br>Zemljopisna dužina: 15.9316672","Trešnjevka - jug","Gajevo","Zvono","Staklo",15.931667200442506,45.79084549968779
312,"NOVAČKA 351, 20040 ZAGREB","Vrsta spremnika: STAKLO<br>Zemljopisna širina: 45.8604361<br>Zemljopisna dužina: 16.0332273","Gornja Dubrava","Zeleni brijeg","Zvono","Staklo",16.03305563878258,45.86067145549176
313,"Novačka ulica 152, 10040, Zagreb, Grad Zagreb, HRV","Vrsta spremnika: STAKLO<br>Zemljopisna širina: 45.848009<br>Zemljopisna dužina: 16.0379101","Gornja Dubrava","Granešinski Novaki","Zvono","Staklo",16.038172956407017,45.84774369562172
314,"Novačka ulica 315, 10040, Zagreb, Grad Zagreb, HRV","Vrsta spremnika: STAKLO<br>Zemljopisna širina: 45.8556472<br>Zemljopisna dužina: 16.0339078","Gornja Dubrava","Granešinski Novaki","Zvono","Staklo",16.03376296117464,45.85555005946921
315,"Novačka ulica 200, 10040, Zagreb, Grad Zagreb, HRV","Vrsta spremnika: STAKLO<br>Zemljopisna širina: 45.85089<br>Zemljopisna dužina: 16.0352217","Gornja Dubrava","Granešinski Novaki","Zvono","Staklo",16.03513586903573,45.85053876975291
316,"GOLJAK, 10000 ZAGREB","Vrsta spremnika: STAKLO<br>Zemljopisna širina: 45.8219667<br>Zemljopisna dužina: 15.964135","Gornji Grad - Medveščak","\"Ivan Kukuljević - Sakcinski\"","Zvono","Staklo",15.963437626170416,45.8221760497679
317,"NOVOSELEČKI PUT 83, 20040 ZAGREB","Vrsta spremnika: STAKLO<br>Zemljopisna širina: 45.8536553<br>Zemljopisna dužina: 16.0819625","Gornja Dubrava","Novoselec","Zvono","Staklo",16.08215561870582,45.85371881641212
318,"NOVOSELEČKI TRG 6, 20040 ZAGREB","Vrsta spremnika: STAKLO<br>Zemljopisna širina: 45.8522105<br>Zemljopisna dužina: 16.0825553","Gornja Dubrava","Novoselec","Zvono","Staklo",16.0823353592291,45.85245336330793
320,"Obreška cesta 10, 10020, Odranski Obrež, Zagreb, Grad Zagreb, HRV","Vrsta spremnika: STAKLO<br>Zemljopisna širina: 45.7212709<br>Zemljopisna dužina: 15.9243971","Brezovica","Odranski Obrež","Zvono","Staklo",15.924708236505682,45.72144692189688
322,"ODAKOVA ULICA 3, 10000 ZAGREB","Vrsta spremnika: STAKLO<br>Zemljopisna širina: 45.7932555<br>Zemljopisna dužina: 15.9077557","Trešnjevka - jug","Prečko","Zvono","Staklo",15.907715466565678,45.793238667408986
323,"ODRANSKA ZAVRTNICA bb, 10020 ODRA","Vrsta spremnika: STAKLO<br>Zemljopisna širina: 45.7348215<br>Zemljopisna dužina: 15.9901825","Novi Zagreb - zapad","Odra","Zvono","Staklo",15.990064482689862,45.73472321266651
324,"Odranski prilaz 20, 10020, Odra, Zagreb, Grad Zagreb, HRV","Vrsta spremnika: STAKLO<br>Zemljopisna širina: 45.7423579<br>Zemljopisna dužina: 15.999753","Novi Zagreb - istok","Buzin","Zvono","Staklo",15.999722154357746,45.74234947616008
325,"OMLADINSKA ULICA BB, 10363 ŽERJAVINEC","Vrsta spremnika: STAKLO<br>Zemljopisna širina: 45.8733436<br>Zemljopisna dužina: 16.1629233","","Žerjavinec","Zvono","Staklo",16.15999432730422,45.8752297216447
327,"OPOROVEČKI OMAJEK 23, 10040 ZAGREB","Vrsta spremnika: STAKLO<br>Zemljopisna širina: 45.8593565<br>Zemljopisna dužina: 16.058249","Gornja Dubrava","Oporovec","Zvono","Staklo",16.05820072015318,45.85920706335805
328,"OZALJSKA ULICA 93, 10000 ZAGREB","Vrsta spremnika: STAKLO<br>Zemljopisna širina: 45.7973967<br>Zemljopisna dužina: 15.9421267","Trešnjevka - sjever","Pongračevo","Zvono","Staklo",15.941917488118863,45.79748505795848
329,"Ožujska ulica 1, 10110, Zagreb, Grad Zagreb, HRV","Vrsta spremnika: STAKLO<br>Zemljopisna širina: 45.793677<br>Zemljopisna dužina: 15.919742","Trešnjevka - jug","Vrbani","Zvono","Staklo",15.91993109518491,45.793539542360186
330,"Rudeška cesta 89, 10110, Zagreb, Grad Zagreb, HRV","Vrsta spremnika: STAKLO<br>Zemljopisna širina: 45.7939633<br>Zemljopisna dužina: 15.9190467","Trešnjevka - jug","Vrbani","Zvono","Staklo",15.918987691078081,45.79399696140162
332,"ULICA RUĐERA BOŠKOVIĆA 1, 10000 ZAGREB","Vrsta spremnika: STAKLO<br>Zemljopisna širina: 45.8098009<br>Zemljopisna dužina: 15.9817762","Donji Grad","Zrinjevac","Zvono","Staklo",15.979228100811913,45.80953167382066
333,"PANTOVČAK 106, 10000 ZAGREB","Vrsta spremnika: STAKLO<br>Zemljopisna širina: 45.8221073<br>Zemljopisna dužina: 15.9601361","Gornji Grad - Medveščak","\"Stjepan Radić\"","Zvono","Staklo",15.960350676992537,45.822092345765654
335,"PERJAVICA 10, PERJAVICA - BORČEC,10090 ZAGREB","Vrsta spremnika: STAKLO<br>Zemljopisna širina: 45.8179528<br>Zemljopisna dužina: 15.8894062","Podsused - Vrapče","Perjavica - Borčec","Zvono","Staklo",15.889406199604556,45.817952798809905
336,"PERJAVICA 61, PERJAVICA - BORČEC, 10090 ZAGREB","Vrsta spremnika: STAKLO<br>Zemljopisna širina: 45.8272545<br>Zemljopisna dužina: 15.8908908","Podsused - Vrapče","Perjavica - Borčec","Zvono","Staklo",15.89089080049348,45.82725449906189
338,"PERUANSKA ULICA 12, 10090 ZAGREB","Vrsta spremnika: STAKLO<br>Zemljopisna širina: 45.81889<br>Zemljopisna dužina: 15.8788719","Podsused - Vrapče","Gajnice","Zvono","Staklo",15.878657323380356,45.818906823216494
339,"PETE POLJANICE 7-15, 10040 ZAGREB","Vrsta spremnika: STAKLO<br>Zemljopisna širina: 45.8289948<br>Zemljopisna dužina: 16.075846","Gornja Dubrava","Dubec","Zvono","Staklo",16.07599620419425,45.82893312332969
341,"PETROVA ULICA 2, 10009 ZAGREB","Vrsta spremnika: STAKLO<br>Zemljopisna širina: 45.8146299<br>Zemljopisna dužina: 15.9911316","Gornji Grad - Medveščak","Petrova","Zvono","Staklo",15.991131599510823,45.814629899200504
342,"Petrovaradinska ulica 1, 10110, Zagreb, Grad Zagreb, HRV","Vrsta spremnika: STAKLO<br>Zemljopisna širina: 45.7958414<br>Zemljopisna dužina: 15.9084395","Trešnjevka - jug","Prečko","Zvono","Staklo",15.908611162021026,45.79588441094008
343,"PETROVARADINSKA ULICA 71, 10000 ZAGREB","Vrsta spremnika: STAKLO<br>Zemljopisna širina: 45.7892487<br>Zemljopisna dužina: 15.9045354","Trešnjevka - jug","Prečko","Zvono","Staklo",15.90451662490935,45.78924869937785
344,"PIJAVIŠĆE 21, PODSUSED, 10090 ZAGREB","Vrsta spremnika: STAKLO<br>Zemljopisna širina: 45.8108225<br>Zemljopisna dužina: 15.8401827","","Podsused","Zvono","Staklo",15.839329757794209,45.81139832633044
345,"Pipić breg 28, 10257, Horvati, Zagreb, Grad Zagreb, HRV","Vrsta spremnika: STAKLO<br>Zemljopisna širina: 45.7235735<br>Zemljopisna dužina: 15.8104625","","Horvati","Zvono","Staklo",15.810542966139003,45.723771984875874
346,"PLANINSKA ULICA 35, 10360 SESVETE","Vrsta spremnika: STAKLO<br>Zemljopisna širina: 45.8353767<br>Zemljopisna dužina: 16.1154483","","Gajišće","Zvono","Staklo",16.115335647528173,45.83549629933685
348,"POD ČRETOM, 10253 DONJI DRAGONOŽEC","Vrsta spremnika: STAKLO<br>Zemljopisna širina: 45.6688367<br>Zemljopisna dužina: 15.9447183","Brezovica","Dragonožec","","Staklo",15.94471830045086,45.66883669956652
350,"PODGAJ 31, 10009 ZAGREB","Vrsta spremnika: STAKLO<br>Zemljopisna širina: 45.8369505<br>Zemljopisna dužina: 15.9747271","Gornji Grad - Medveščak","Gupčeva zvijezda","Zvono","Staklo",15.974727100474393,45.836950499446516
351,"PODREBERNICA 13, 10000 ZAGREB","Vrsta spremnika: STAKLO<br>Zemljopisna širina: 45.8527192<br>Zemljopisna dužina: 15.9567059","Podsljeme","Šestine","Zvono","Staklo",15.957113595283706,45.85287986199923
352,"PODSUSEDSKI TRG 14B, PODSUSED, 10090 ZAGREB","Vrsta spremnika: STAKLO<br>Zemljopisna širina: 45.8173928<br>Zemljopisna dužina: 15.8325122","","Podsused","Zvono","Staklo",15.832512199722537,45.81744888011845
354,"PODSUSEDSKI TRG 28, PODSUSED, 10090 ZAGREB","Vrsta spremnika: STAKLO<br>Zemljopisna širina: 45.8167303<br>Zemljopisna dužina: 15.8351724","","Podsused","Zvono","Staklo",15.834721789091711,45.81693966936048
355,"PODSUSEDSKO DOLJE 43, 10 090 ZAGREB","Vrsta spremnika: STAKLO<br>Zemljopisna širina: 45.8286798<br>Zemljopisna dužina: 15.8483405","","Podsused","Zvono","Staklo",15.848375369256441,45.82865082983338
356,"POLJANICE V. 20, 10040 ZAGREB","Vrsta spremnika: STAKLO<br>Zemljopisna širina: 45.828912<br>Zemljopisna dužina: 16.075005","Gornja Dubrava","Poljanice","Zvono","Staklo",16.075005000618738,45.828911999609026
357,"POPOVEČKA CESTA 22, 10360 POPOVEC","Vrsta spremnika: STAKLO<br>Zemljopisna širina: 45.8298666<br>Zemljopisna dužina: 16.14521","","Kraljevečki Novaki","Zvono","Staklo",16.145210000067316,45.82986659961755
358,"POSAVSKOG LJUDEVITA 25F, NOVI JELKOVEC, SESVETE","Vrsta spremnika: STAKLO<br>Zemljopisna širina: 45.8114789<br>Zemljopisna dužina: 16.1023906","Sesvete","Novi Jelkovec","Zvono","Staklo",16.101655675207997,45.811434030231645
360,"PREKRATOVA ULICA BB, 10020 ZAGREB","Vrsta spremnika: STAKLO<br>Zemljopisna širina: 45.7754939<br>Zemljopisna dužina: 15.9556675","Novi Zagreb - zapad","Savski gaj","Zvono","Staklo",15.955764059985803,45.7754976406255
361,"PRIGORSKA ULICA 80, MORAVČE, SESVETE","Vrsta spremnika: STAKLO<br>Zemljopisna širina: 45.9347003<br>Zemljopisna dužina: 16.1673901","","Moravče","Zvono","Staklo",16.167666367958027,45.934689106348515
362,"Poljaki odvojak 12, 10362 PREKVRŠJE","Vrsta spremnika: STAKLO<br>Zemljopisna širina: 45.8933327<br>Zemljopisna dužina: 16.1138307","Sesvete","Prekvršje","Zvono","Staklo",16.114041253702908,45.89314975202397
364,"Fancevljev prilaz 1, 10010, Zagreb, Grad Zagreb, HRV","Vrsta spremnika: STAKLO<br>Zemljopisna širina: 45.7736191<br>Zemljopisna dužina: 15.9966719","Novi Zagreb - istok","Utrine","Zvono","Staklo",15.996682629058734,45.77344698258241
365,"PRILAZ GJURE DEŽELIĆA 36, 10000 ZAGREB","Vrsta spremnika: STAKLO<br>Zemljopisna širina: 45.8106105<br>Zemljopisna dužina: 15.9641594","Donji Grad","\"Andrija Medulić\"","Zvono","Staklo",15.964159399954475,45.81061049899006
368,"PRILAZ KRALJIČINOM ZDENCU, 10000 ZAGREB","Vrsta spremnika: STAKLO<br>Zemljopisna širina: 45.8552133<br>Zemljopisna dužina: 15.9497767","Podsljeme","Šestine","","Staklo",15.949776699547805,45.85521329948959
369,"PRILAZ MATE BALOTE 1, 10010 ZAGREB","Vrsta spremnika: STAKLO<br>Zemljopisna širina: 45.7752383<br>Zemljopisna dužina: 15.994295","Novi Zagreb - istok","Utrine","Zvono","Staklo",15.99429500013197,45.77523829952101
370,"PROMINSKA 40, DUBEC, GORNJA DUBRAVA","Vrsta spremnika: STAKLO<br>Zemljopisna širina: 45.8325354<br>Zemljopisna dužina: 16.0761538","Gornja Dubrava","Dubec","Zvono","Staklo",16.07620744481102,45.832397104547255
371,"ULICA I. GARDIJSKE BRIGADE TIGROVI 25 , 10000 ZAGREB","Vrsta spremnika: STAKLO<br>Zemljopisna širina: 45.788949<br>Zemljopisna dužina: 16.0112","Peščenica - Žitnjak","Savica Šanci","Zvono","Staklo",16.010507989515013,45.790183392162405
373,"RADNIČKI DOL 2, 10000 ZAGREB","Vrsta spremnika: STAKLO<br>Zemljopisna širina: 45.8143212<br>Zemljopisna dužina: 15.9640336","Gornji Grad - Medveščak","\"Ivan Kukuljević - Sakcinski\"","Zvono","Staklo",15.964033600002123,45.81432119945409
375,"REMETE 61, 10009 ZAGREB","Vrsta spremnika: STAKLO<br>Zemljopisna širina: 45.8436222<br>Zemljopisna dužina: 15.9951278","Maksimir","Remete","Zvono","Staklo",15.995155963456282,45.84365676628196
376,"REMETINEČKA CESTA 7, 10020 ZAGREB","Vrsta spremnika: STAKLO<br>Zemljopisna širina: 45.7824699<br>Zemljopisna dužina: 15.9553296","Novi Zagreb - zapad","Kajzerica","","Staklo",15.955329600418434,45.78246989906282
377,"REMETINEČKA CESTA 73, 10020 ZAGREB","Vrsta spremnika: STAKLO<br>Zemljopisna širina: 45.77517<br>Zemljopisna dužina: 15.9533383","Novi Zagreb - zapad","Savski gaj","Zvono","Staklo",15.953359757469322,45.775244829800876
379,"Remetinečki gaj 26A, 10020, Zagreb, Grad Zagreb, HRVREMETINEČKI GAJ 26A, 10.000 ZAGREB","Vrsta spremnika: STAKLO<br>Zemljopisna širina: 45.7701918<br>Zemljopisna dužina: 15.9466231","Novi Zagreb - zapad","Remetinec","Zvono","Staklo",15.94671965909082,45.76988496389901
380,"REMETINEČKI GAJ 2c, 10.000 ZAGREB","Vrsta spremnika: STAKLO<br>Zemljopisna širina: 45.7678867<br>Zemljopisna dužina: 15.9455283","Novi Zagreb - zapad","Remetinec","Zvono","Staklo",15.945528300197047,45.76788669932813
382,"Remetinečki gaj 3, 10020, Zagreb, Grad Zagreb, HRV","Vrsta spremnika: STAKLO<br>Zemljopisna širina: 45.7685454<br>Zemljopisna dužina: 15.9460222","Novi Zagreb - zapad","Remetinec","Zvono","Staklo",15.946022200577762,45.76854539911728
383,"Jaruščica 2d, 10020, Zagreb, Grad Zagreb, HRV","Vrsta spremnika: STAKLO<br>Zemljopisna širina: 45.768095<br>Zemljopisna dužina: 15.943265","Novi Zagreb - zapad","Remetinec","Zvono","Staklo",15.944219865941555,45.7682147440033
384,"Remetinečkih žrtava 1, 10020, Čehi, Zagreb, Grad Zagreb, HRV","Vrsta spremnika: STAKLO<br>Zemljopisna širina: 45.7508153<br>Zemljopisna dužina: 15.9602219","Novi Zagreb - zapad","Čehi","Zvono","Staklo",15.959803474913898,45.75039231767148
385,"GRMOŠČICA LIJEVA / DESNA","Vrsta spremnika: STAKLO<br>Zemljopisna širina: 45.8126324<br>Zemljopisna dužina: 15.917079","Črnomerec","Kustošija - centar","Zvono","Staklo",15.923264173797707,45.814389718619694
387,"ROKOV PERIVOJ 7, 10000 ZAGREB","Vrsta spremnika: STAKLO<br>Zemljopisna širina: 45.815591<br>Zemljopisna dužina: 15.9680325","Gornji Grad - Medveščak","Tuškanac","Zvono","Staklo",15.968032500422211,45.81559099966377
388,"RUDEŠKA CESTA 148, 10000 ZAGREB","Vrsta spremnika: STAKLO<br>Zemljopisna širina: 45.7937967<br>Zemljopisna dužina: 15.9177142","Trešnjevka - jug","Vrbani","Zvono","Staklo",15.91771419948838,45.79379669902772
389,"RUDEŠKA CESTA 172, 10104 ZAGREB","Vrsta spremnika: STAKLO<br>Zemljopisna širina: 45.7920292<br>Zemljopisna dužina: 15.9142578","Trešnjevka - jug","Vrbani","Zvono","Staklo",15.914480422849069,45.792194712792764
390,"RUJANSKA ULICA 1-13, 10104 ZAGREB","Vrsta spremnika: STAKLO<br>Zemljopisna širina: 45.7936783<br>Zemljopisna dužina: 15.9218183","Trešnjevka - jug","Vrbani","Zvono","Staklo",15.921815617323952,45.79322946000963
392,"RUMAŠČICA 5, 10362 KAŠINSKA SOPNICA","Vrsta spremnika: STAKLO<br>Zemljopisna širina: 45.9137944<br>Zemljopisna dužina: 16.1034357","","Kašinska Sopnica","Zvono","Staklo",16.103383396321203,45.91360872035004
393,"BIJENIČKA 54","Vrsta spremnika: STAKLO<br>Zemljopisna širina: 45.8264633<br>Zemljopisna dužina: 15.9874933","Gornji Grad - Medveščak","Šalata","Zvono","Staklo",15.986736917481277,45.82832110813443
394,"RUŽMARINKA 15, 10000 ZAGREB","Vrsta spremnika: STAKLO<br>Zemljopisna širina: 45.8168762<br>Zemljopisna dužina: 16.0094564","Maksimir","Ružmarinka","Zvono","Staklo",16.009416166340234,45.816898632079955
395,"SACHSOVA 4, FOLNEGOVIĆEVO NASELJE, PEŠČENICA - ŽITNJAK","Vrsta spremnika: STAKLO<br>Zemljopisna širina: 45.794909<br>Zemljopisna dužina: 16.008474","Peščenica - Žitnjak","Folnegovićevo naselje","Zvono","Staklo",16.008959479359426,45.7946771050295
396,"SAVSKA CESTA 17, 10000 ZAGREB","Vrsta spremnika: STAKLO<br>Zemljopisna širina: 45.8055551<br>Zemljopisna dužina: 15.9666273","Donji Grad","\"Mimara\"","Zvono","Staklo",15.966147184029158,45.8054429141359
397,"SAVSKA CESTA 25, 10000 ZAGREB","Vrsta spremnika: STAKLO<br>Zemljopisna širina: 45.8041378<br>Zemljopisna dužina: 15.9656563","Trešnjevka - sjever","\"Antun Mihanović\"","Zvono","Staklo",15.965656299607577,45.80413779887398
398,"Savska cesta 42, 10110, Zagreb, Grad Zagreb, HRV","Vrsta spremnika: STAKLO<br>Zemljopisna širina: 45.8006424<br>Zemljopisna dužina: 15.9629124","Trešnjevka - sjever","\"Antun Mihanović\"","Zvono","Staklo",15.96297140909741,45.800638659467154
402,"SELČINSKA ULICA 32, 10360 MARKOVO POLJE","Vrsta spremnika: STAKLO<br>Zemljopisna širina: 45.8352949<br>Zemljopisna dužina: 16.114504","Sesvete","Gajišće","Zvono","Staklo",16.114348432417422,45.83527247382497
404,"Selska cesta 34, 10110, Zagreb, Grad Zagreb, HRV","Vrsta spremnika: STAKLO<br>Zemljopisna širina: 45.8078174<br>Zemljopisna dužina: 15.9417576","Trešnjevka - sjever","Ciglenica","Zvono","Staklo",15.942285994747051,45.807983800123694
407,"SELSKA CESTA 41, 10360 POPOVEC","Vrsta spremnika: STAKLO<br>Zemljopisna širina: 45.8255081<br>Zemljopisna dužina: 16.1455104","","Kraljevečki Novaki","Zvono","Staklo",16.145510400295127,45.82550809934368
408,"SELSKA CESTA 5-7, 10110 ZAGREB","Vrsta spremnika: STAKLO<br>Zemljopisna širina: 45.8126221<br>Zemljopisna dužina: 15.9421331","Črnomerec","\"Bartol Kašić\"","Zvono","Staklo",15.94224038886754,45.81262209952994
409,"ŠENCAJI 2, 10253 DONJI TRPUCI","Vrsta spremnika: STAKLO<br>Zemljopisna širina: 45.6656197<br>Zemljopisna dužina: 15.9376706","","Trpuci","Zvono","Staklo",15.93782080318931,45.66558970792065
411,"Šestinski dol 115, 10000, Zagreb, Grad Zagreb, HRV","Vrsta spremnika: STAKLO<br>Zemljopisna širina: 45.8271683<br>Zemljopisna dužina: 15.9451383","Črnomerec","Šestinski dol - Vrhovec","Zvono","Staklo",15.944864714073837,45.827388844535115
415,"SESVETSKA ULICA 8, 10362 PLANINA GORNJA","Vrsta spremnika: STAKLO<br>Zemljopisna širina: 45.939383<br>Zemljopisna dužina: 16.0792236","","Planina Gornja","Zvono","Staklo",16.079287972526174,45.937413250721825
416,"Fallerovo šetalište 78, 10110, Zagreb, Grad Zagreb, HRV","Vrsta spremnika: STAKLO<br>Zemljopisna širina: 45.7947205<br>Zemljopisna dužina: 15.9367204","Trešnjevka - sjever","Ljubljanica","Zvono","Staklo",15.936711011690875,45.79483177143808
421,"SIGET 22A, 10240 ZAGREB","Vrsta spremnika: STAKLO<br>Zemljopisna širina: 45.7725205<br>Zemljopisna dužina: 15.9705493","Novi Zagreb - zapad","Siget","Zvono","Staklo",15.970549300215652,45.77252049938754
422,"SIGETJE 28, GAJNICE, 10090 ZAGREB","Vrsta spremnika: STAKLO<br>Zemljopisna širina: 45.8145285<br>Zemljopisna dužina: 15.8695588","Podsused - Vrapče","Gajnice","Zvono","Staklo",15.869558800569525,45.814528499471415
424,"Širanovići 57, 10257, Horvati, Zagreb, Grad Zagreb, HRV","Vrsta spremnika: STAKLO<br>Zemljopisna širina: 45.7204406<br>Zemljopisna dužina: 15.7911395","","Horvati","Zvono","Staklo",15.79113950039474,45.720440599236646
425,"Šišićeva ulica 17, 10010, Zagreb, Grad Zagreb, HRV","Vrsta spremnika: STAKLO<br>Zemljopisna širina: 45.774795<br>Zemljopisna dužina: 16.0011683","Novi Zagreb - istok","Utrine","Zvono","Staklo",16.00120585070196,45.774794999682335
430,"SOBLINEČKA CESTA 3, 10362 KAŠINA","Vrsta spremnika: STAKLO<br>Zemljopisna širina: 45.9063771<br>Zemljopisna dužina: 16.125517","","Kašina","Zvono","Staklo",16.12619023445778,45.906194194676594
432,"SOBLINEČKA ULICA 68, SOBLINEC, SESVETE","Vrsta spremnika: STAKLO<br>Zemljopisna širina: 45.8638118<br>Zemljopisna dužina: 16.1543844","","Soblinec","Zvono","Staklo",16.154151047785867,45.86409943927817
435,"SOVINJAČKA 13, BORONGAJ LUGOVI, PEŠČENICA - ŽITNJAK","Vrsta spremnika: STAKLO<br>Zemljopisna širina: 45.809317<br>Zemljopisna dužina: 16.0426375","Peščenica - Žitnjak","Borongaj - Lugovi","Zvono","Staklo",16.04284805387533,45.809320738253376
436,"Srebrnjak 168","Vrsta spremnika: STAKLO<br>Zemljopisna širina: 45.8321254<br>Zemljopisna dužina: 15.9893185","Maksimir","\"Dinko Šimunović\"","Zvono","Staklo",15.989365438185253,45.831868429869814
437,"SRUKI 28, 10040 ZAGREB","Vrsta spremnika: STAKLO<br>Zemljopisna širina: 45.9026552<br>Zemljopisna dužina: 16.0637021","","Čučerje","","Staklo",16.063702099713517,45.902655199194726
438,"STANČIR SLAVKA 5-7, BUDENEC, SESVETE","Vrsta spremnika: STAKLO<br>Zemljopisna širina: 45.8406127<br>Zemljopisna dužina: 16.1743653","","Budenec","Zvono","Staklo",16.172077376339402,45.84073228833737
439,"STARA PEŠČENICA II. 20, 10000 ZAGREB","Vrsta spremnika: STAKLO<br>Zemljopisna širina: 45.8119783<br>Zemljopisna dužina: 16.00565","Peščenica - Žitnjak","Peščenica","Zvono","Staklo",16.005376414901296,45.81191286554624
442,"Stonska ulica, 10020, Zagreb, Grad Zagreb, HRV","Vrsta spremnika: STAKLO<br>Zemljopisna širina: 45.779215<br>Zemljopisna dužina: 15.9854483","Novi Zagreb - istok","Središće","Zvono","Staklo",15.98527663913263,45.779267377473964
444,"Strmečka 162, 10257 BREZOVICA","Vrsta spremnika: STAKLO<br>Zemljopisna širina: 45.6992567<br>Zemljopisna dužina: 15.9021133","Brezovica","Odranski Strmec","Zvono","Staklo",15.902040880227185,45.69921548655007
445,"STRMEČKA CESTA 115, 10257 ZADVORSKO","Vrsta spremnika: STAKLO<br>Zemljopisna širina: 45.7033144<br>Zemljopisna dužina: 15.9097608","Brezovica","Odranski Strmec","Zvono","Staklo",15.909843947926623,45.70340243902878
448,"ŠUMSKA CESTA, HORVATI","Vrsta spremnika: STAKLO<br>Zemljopisna širina: 45.7116709<br>Zemljopisna dužina: 15.7941356","","Horvati","Zvono","Staklo",15.794135599875492,45.71167089886202
449,"SV. BARBARE, 20040 ZAGREB","Vrsta spremnika: STAKLO<br>Zemljopisna širina: 45.8798783<br>Zemljopisna dužina: 16.0576033","Gornja Dubrava","Dankovec","","Staklo",16.057603300380876,45.87987829927472
450,"SVETI DUH 129, 10000 ZAGREB","Vrsta spremnika: STAKLO<br>Zemljopisna širina: 45.8248998<br>Zemljopisna dužina: 15.9374661","Črnomerec","\"Sveti Duh\"","Zvono","Staklo",15.938066914346871,45.82416336650788
451,"SVETI DUH 170, 10110 ZAGREB","Vrsta spremnika: STAKLO<br>Zemljopisna širina: 45.8289519<br>Zemljopisna dužina: 15.9404058","Črnomerec","\"Sveti Duh\"","Zvono","Staklo",15.940405800605655,45.82895189961737
452,"SVETI DUH 4, 10000 ZAGREB","Vrsta spremnika: STAKLO<br>Zemljopisna širina: 45.8135195<br>Zemljopisna dužina: 15.9422189","Črnomerec","\"Sveti Duh\"","Zvono","Staklo",15.942218900322608,45.813519498973186
454,"Ulica svetog Izidora 12, 10020, Odra, Zagreb, Grad Zagreb, HRV","Vrsta spremnika: STAKLO<br>Zemljopisna širina: 45.7291393<br>Zemljopisna dužina: 15.9926384","Novi Zagreb - zapad","Odra","Zvono","Staklo",15.992364814693103,45.72794100229606
455,"SVETOG ROKA 8, 10010 ZAGREB","Vrsta spremnika: STAKLO<br>Zemljopisna širina: 45.7634398<br>Zemljopisna dužina: 16.0112672","Novi Zagreb - istok","Jakuševec","Zvono","Staklo",16.010800496187112,45.76370550445617
456,"TALANI ČUČERSKI, 10040 ZAGREB","Vrsta spremnika: STAKLO<br>Zemljopisna širina: 45.8936617<br>Zemljopisna dužina: 16.0585992","Gornja Dubrava","Čučerje","","Staklo",16.058599199728516,45.89366169898539
458,"Tišinska ulica 20, 10010, Zagreb, Grad Zagreb, HRV","Vrsta spremnika: STAKLO<br>Zemljopisna širina: 45.7643556<br>Zemljopisna dužina: 16.0177962","Novi Zagreb - istok","Jakuševec","Zvono","Staklo",16.017785471232784,45.76424520183655
459,"Ulica Hrvatskog sokola, 10110, Zagreb, Grad Zagreb, HRV","Vrsta spremnika: STAKLO<br>Zemljopisna širina: 45.791848<br>Zemljopisna dužina: 15.9204877","Trešnjevka - jug","Vrbani","Zvono","Staklo",15.921383557977371,45.79174326727624
461,"Maretićeva ulica 1, 10010, Zagreb, Grad Zagreb, HRV","Vrsta spremnika: STAKLO<br>Zemljopisna širina: 45.7771199<br>Zemljopisna dužina: 15.9969356","Novi Zagreb - istok","Utrine","Zvono","Staklo",15.99675052813081,45.77734064228318
462,"Nehruov trg 40, 10020, Zagreb, Grad Zagreb, HRV","Vrsta spremnika: STAKLO<br>Zemljopisna širina: 45.7759092<br>Zemljopisna dužina: 15.9572984","Novi Zagreb - zapad","Savski gaj","Zvono","Staklo",15.957427146041981,45.77601770311253
463,"Donje Svetice 8","Vrsta spremnika: STAKLO<br>Zemljopisna širina: 45.8171233<br>Zemljopisna dužina: 16.01251","Maksimir","Ružmarinka","Zvono","Staklo",16.012751398754673,45.81741678896412
465,"TRG LOVRE MATAČIĆA 3 , 10000 ZAGREB","Vrsta spremnika: STAKLO<br>Zemljopisna širina: 45.8316694<br>Zemljopisna dužina: 16.1087803","Sesvete","Luka","Zvono","Staklo",16.107675230042624,45.831624546315076
467,"TRG STJEPANA KONZULA BB, VOLOVČICA, PEŠČENICA - ŽITNJAK","Vrsta spremnika: STAKLO<br>Zemljopisna širina: 45.8066807<br>Zemljopisna dužina: 16.0198201","Peščenica - Žitnjak","Volovčica","Zvono","Staklo",16.019085174330502,45.80654047021503
468,"TRG SVETOG TROJSTVA 1, 10363 MORAVČE","Vrsta spremnika: STAKLO<br>Zemljopisna širina: 45.9499471<br>Zemljopisna dužina: 16.1601873","","Moravče","Zvono","Staklo",16.167735035642163,45.93656666494729
470,"TRG VLAHA BUKOVCA 2, 10000 ZAGREB","Vrsta spremnika: STAKLO<br>Zemljopisna širina: 45.8174706<br>Zemljopisna dužina: 16.0018658","Maksimir","Mašićeva","Zvono","Staklo",16.00220241690446,45.81750611668325
473,"TRNOVČICA 125, 10040 ZAGREB","Vrsta spremnika: STAKLO<br>Zemljopisna širina: 45.8360033<br>Zemljopisna dužina: 16.0689533","Gornja Dubrava","Trnovčica","Zvono","Staklo",16.068840647640787,45.83599208652943
474,"TRNSKO 10C, 10020 ZAGREB","Vrsta spremnika: STAKLO<br>Zemljopisna širina: 45.7759354<br>Zemljopisna dužina: 15.9613645","Novi Zagreb - zapad","Trnsko","Zvono","Staklo",15.961364500543882,45.77593539900908
477,"TRNSKO 24, 10020 ZAGREB","Vrsta spremnika: STAKLO<br>Zemljopisna širina: 45.7741656<br>Zemljopisna dužina: 15.9642399","Novi Zagreb - zapad","Trnsko","Zvono","Staklo",15.964486663703552,45.77413192455918
478,"TRNSKO 28, 10020 ZAGREB","Vrsta spremnika: STAKLO<br>Zemljopisna širina: 45.772392<br>Zemljopisna dužina: 15.9646798","Novi Zagreb - zapad","Trnsko","Zvono","Staklo",15.96415140534313,45.772850360501046
479,"TRNSKO 32A, 10020 ZAGREB","Vrsta spremnika: STAKLO<br>Zemljopisna širina: 45.7719729<br>Zemljopisna dužina: 15.9635533","Novi Zagreb - zapad","Trnsko","Zvono","Staklo",15.963078548945221,45.77199722055223
480,"TRNSKO 36, 10020 ZAGREB","Vrsta spremnika: STAKLO<br>Zemljopisna širina: 45.7707157<br>Zemljopisna dužina: 15.9642721","Novi Zagreb - zapad","Trnsko","Zvono","Staklo",15.96450545212473,45.77081111628036
481,"TRNSKO 42e, 10020 ZAGREB","Vrsta spremnika: STAKLO<br>Zemljopisna širina: 45.7706125<br>Zemljopisna dužina: 15.9649911","Novi Zagreb - zapad","Trnsko","Zvono","Papir",15.965532905906512,45.770642434159065
482,"TRNSKO 7a, 10020 ZAGREB","Vrsta spremnika: STAKLO<br>Zemljopisna širina: 45.775969<br>Zemljopisna dužina: 15.9637572","Novi Zagreb - zapad","Trnsko","Zvono","Papir",15.963016909795469,45.77669484534862
483,"TRPINJSKA ULICA 4, 10000 ZAGREB","Vrsta spremnika: STAKLO<br>Zemljopisna širina: 45.8133217<br>Zemljopisna dužina: 16.0146333","Peščenica - Žitnjak","Peščenica","Zvono","Staklo",16.014825077447618,45.81339460932913
484,"Trpučanska cesta 28, 10257, Donji Trpuci, Zagreb, Grad Zagreb, HRV","Vrsta spremnika: STAKLO<br>Zemljopisna širina: 45.6671962<br>Zemljopisna dužina: 15.928977","","Trpuci","Zvono","Staklo",15.928880440439354,45.667293667984644
486,"TUŠKANAC 1, 10000 ZAGREB","Vrsta spremnika: STAKLO<br>Zemljopisna širina: 45.8152919<br>Zemljopisna dužina: 15.9696203","Gornji Grad - Medveščak","Tuškanac","Zvono","Staklo",15.969620299863065,45.81529189925612
487,"TUŠKANAC 64, 10000 ZAGREB","Vrsta spremnika: STAKLO<br>Zemljopisna širina: 45.8295239<br>Zemljopisna dužina: 15.971353","Gornji Grad - Medveščak","Tuškanac","Zvono","Staklo",15.971202796714136,45.829807978894515
488,"TUŠKANAC 81, 10000 ZAGREB","Vrsta spremnika: STAKLO<br>Zemljopisna širina: 45.833557<br>Zemljopisna dužina: 15.9711223","Gornji Grad - Medveščak","Tuškanac","Zvono","Staklo",15.971122300074597,45.833556999474624
489,"Skokov prilaz 2, Zagreb","Vrsta spremnika: STAKLO<br>Zemljopisna širina: 45.7729183<br>Zemljopisna dužina: 15.9986","Novi Zagreb - istok","Utrine","Zvono","Papir",15.998546355221663,45.77323260139562
490,"Ulica Nikole Kopernika 38, 10010, Zagreb, Grad Zagreb, HRV","Vrsta spremnika: STAKLO<br>Zemljopisna širina: 45.77269<br>Zemljopisna dužina: 16.00027","Novi Zagreb - istok","Travno","Zvono","Staklo",16.00034510130746,45.77227840868886
491,"Skokov prilaz 2, Zagreb","Vrsta spremnika: STAKLO<br>Zemljopisna širina: 45.7731633<br>Zemljopisna dužina: 15.9986","Novi Zagreb - istok","Utrine","Zvono","Staklo",15.998546355878435,45.77322316589192
493,"ULICA ALEKSANDRA ALAGOVIĆA 6, 10009 ZAGREB","Vrsta spremnika: STAKLO<br>Zemljopisna širina: 45.8246783<br>Zemljopisna dužina: 15.9829117","Gornji Grad - Medveščak","Šalata","Zvono","Staklo",15.982911700607243,45.824678299013385
495,"ULICA ALEKSANDRA HONDLA 4A, 10000 ZAGREB","Vrsta spremnika: STAKLO<br>Zemljopisna širina: 45.8184587<br>Zemljopisna dužina: 16.0229504","Maksimir","Maksimirska naselja","Zvono","Staklo",16.02301209115698,45.818343735890785
496,"ULICA ANDRIJE HEBRANGA 10, 10000 ZAGREB","Vrsta spremnika: STAKLO<br>Zemljopisna širina: 45.80913<br>Zemljopisna dužina: 15.9746844","Donji Grad","\"Kralj Petar Svačić\"","Zvono","Staklo",15.976240080743702,45.809260873875246
497,"ULICA ANTE STARČEVIĆA 53A, 1000","Vrsta spremnika: STAKLO<br>Zemljopisna širina: 45.8247155<br>Zemljopisna dužina: 16.0987219","Sesvete","Sesvetska Sopnica","Zvono","Staklo",16.09872189942392,45.824715499041176
498,"ULICA ANTUNA BAUERA 21, 10000 ZAGREB","Vrsta spremnika: STAKLO<br>Zemljopisna širina: 45.8112201<br>Zemljopisna dužina: 15.9897211","Donji Grad","\"Nadbiskup Antun Bauer\"","","Staklo",15.989753286867446,45.81101070763249
504,"ULICA BERNARDA VUKASA bb, 10000 ZAGREB","Vrsta spremnika: STAKLO<br>Zemljopisna širina: 45.7847406<br>Zemljopisna dužina: 15.929768","Trešnjevka - jug","Jarun","Zvono","Staklo",15.929041121072563,45.78459470403996
505,"ULICA BISKUPA JOSIPA GALJUFA 22, 10000 ZAGREB","Vrsta spremnika: STAKLO<br>Zemljopisna širina: 45.8163236<br>Zemljopisna dužina: 15.9951979","Gornji Grad - Medveščak","Petrova","Zvono","Staklo",15.99514425530126,45.816308644513754
506,"ULICA BOŽIDARA MAGOVCA 3, 10010 ZAGREB","Vrsta spremnika: STAKLO<br>Zemljopisna širina: 45.7725778<br>Zemljopisna dužina: 15.9951385","Novi Zagreb - istok","Travno","Zvono","Staklo",15.995138500131816,45.772577798935714
507,"ULICA BOŽIDARA MAGOVCA 31, 10010 ZAGREB","Vrsta spremnika: STAKLO<br>Zemljopisna širina: 45.7715975<br>Zemljopisna dužina: 15.9942427","Novi Zagreb - istok","Travno","Zvono","Staklo",15.994242699652496,45.77159749959415
508,"ULICA BOŽIDARA MAGOVCA 44, 10010 ZAGREB","Vrsta spremnika: STAKLO<br>Zemljopisna širina: 45.769532<br>Zemljopisna dužina: 16.0021069","Novi Zagreb - istok","Travno","Zvono","Staklo",16.00210689938513,45.76953199961712
510,"ULICA BOŽIDARA MAGOVCA 75, 10010 ZAGREB","Vrsta spremnika: STAKLO<br>Zemljopisna širina: 45.769416<br>Zemljopisna dužina: 15.995278","Novi Zagreb - istok","Travno","Zvono","Staklo",15.995031236536759,45.769988512413576
512,"ULICA BOŽIDARA MAGOVCA 147 , 10010 ZAGREB","Vrsta spremnika: STAKLO<br>Zemljopisna širina: 45.7699096<br>Zemljopisna dužina: 16.0021811","Novi Zagreb - istok","Travno","Zvono","Staklo",16.001977251771454,45.77009669388966
513,"ULICA BRAĆE DOMANY 8, 10000 ZAGREB","Vrsta spremnika: STAKLO<br>Zemljopisna širina: 45.788489<br>Zemljopisna dužina: 15.9384585","Trešnjevka - jug","Horvati - Srednjaci","Zvono","Staklo",15.938500074274417,45.78838332539567
514,"ULICA BRAĆE DOMANY, 10000 ZAGREB","Vrsta spremnika: STAKLO<br>Zemljopisna širina: 45.7892745<br>Zemljopisna dužina: 15.9383458","Trešnjevka - jug","Horvati - Srednjaci","Zvono","Papir",15.938715945269124,45.78940916118925
515,"ULICA BRUNE BUŠIĆA 30, 10020 ZAGREB","Vrsta spremnika: STAKLO<br>Zemljopisna širina: 45.780768<br>Zemljopisna dužina: 15.9867113","Novi Zagreb - istok","Središće","Zvono","Staklo",15.986491358578098,45.780801669880006
519,"ULICA DARKA MATEŠE 2, 10251 DEMERJE","Vrsta spremnika: STAKLO<br>Zemljopisna širina: 45.7320183<br>Zemljopisna dužina: 15.8833753","Brezovica","Demerje","Zvono","Staklo",15.883404803707391,45.73199395989579
520,"ULICA DAVORINA BAZJANCA 31, 10000 ZAGREB","Vrsta spremnika: STAKLO<br>Zemljopisna širina: 45.7928961<br>Zemljopisna dužina: 15.9469987","Trešnjevka - jug","Knežija","Zvono","Plastika",15.946998699521572,45.79289609936752
521,"Šercerov Prečac, 10000, Zagreb, Grad Zagreb, HRV","Vrsta spremnika: STAKLO<br>Zemljopisna širina: 45.8255233<br>Zemljopisna dužina: 15.957825","Črnomerec","Jelenovac","Zvono","Staklo",15.957685525546369,45.82551582288442
522,"ULICA DOMINIKA MANDIĆA 3, GORNJE VRAPČE, 10090 ZAGREB","Vrsta spremnika: STAKLO<br>Zemljopisna širina: 45.819757<br>Zemljopisna dužina: 15.8964977","Podsused - Vrapče","Perjavica - Borčec","Zvono","Staklo",15.896497699999403,45.819756999094686
526,"Prilaz Pavla Vuk-Pavlovića 6, 10110, Zagreb, Grad Zagreb, HRV","Vrsta spremnika: STAKLO<br>Zemljopisna širina: 45.806877<br>Zemljopisna dužina: 15.9299928","Trešnjevka - sjever","\"Dr. Ante Starčević\"","Zvono","Staklo",15.928946738407518,45.806914393534
529,"ULICA DRAGUTINA RAKOVCA, 10000 ZAGREB","Vrsta spremnika: STAKLO<br>Zemljopisna širina: 45.8141589<br>Zemljopisna dužina: 16.002456","Maksimir","\"Eugen Kvaternik\"","Zvono","Staklo",16.00245599975857,45.81415889885169
530,"ULICA DRAGUTINA ZRNETIĆA 7, VRAPČE, 10090 ZAGREB","Vrsta spremnika: STAKLO<br>Zemljopisna širina: 45.8135413<br>Zemljopisna dužina: 15.903454","Podsused - Vrapče","Vrapče - centar","Zvono","Staklo",15.903134816967485,45.813393609583365
533,"ULICA EDE MURTIĆA 6, 10020 ZAGREB","Vrsta spremnika: STAKLO<br>Zemljopisna širina: 45.7804237<br>Zemljopisna dužina: 15.9829402","Novi Zagreb - istok","Središće","Zvono","Staklo",15.982940200421366,45.780423698823995
535,"RAPSKA 46B, 10000 ZAGREB","Vrsta spremnika: STAKLO<br>Zemljopisna širina: 45.7997883<br>Zemljopisna dužina: 16.0065467","Trnje","Sigečica","Zvono","Staklo",16.005873464917485,45.79999212356714
536,"ULICA FRANA VRBANIĆA 1, 10000 ZAGREB","Vrsta spremnika: STAKLO<br>Zemljopisna širina: 45.8095487<br>Zemljopisna dužina: 15.994667","Donji Grad","\"Kralj Zvonimir\"","","Staklo",15.994667000264887,45.80954869958069
538,"Hanamanova ulica 26, 10110, Zagreb, Grad Zagreb, HRV","Vrsta spremnika: STAKLO<br>Zemljopisna širina: 45.8053418<br>Zemljopisna dužina: 15.9254766","Trešnjevka - sjever","\"Dr. Ante Starčević\"","Zvono","Staklo",15.925337124721842,45.80545211493482
540,"ULICA FRANKA POTOČNJAKA 6, 10010 ZAGREB","Vrsta spremnika: STAKLO<br>Zemljopisna širina: 45.7758779<br>Zemljopisna dužina: 15.9810519","Novi Zagreb - istok","Sopot","Zvono","Staklo",15.981325484853427,45.77575442971783
541,"ULICA GJURE PREJCA 5, 10040 ZAGREB","Vrsta spremnika: STAKLO<br>Zemljopisna širina: 45.8328785<br>Zemljopisna dužina: 16.0603012","Gornja Dubrava","Studentski grad","Zvono","Staklo",16.06030119987238,45.832878499211176
545,"ULICA HINKA WUERTHA 6, 10000 ZAGREB","Vrsta spremnika: STAKLO<br>Zemljopisna širina: 45.7876921<br>Zemljopisna dužina: 15.9216893","Trešnjevka - jug","Jarun","Podzemni","Staklo",15.921576647596629,45.78755743380161
547,"ULICA HRVATSKOG SOKOLA 81, 10000 ZAGREB","Vrsta spremnika: STAKLO<br>Zemljopisna širina: 45.7867944<br>Zemljopisna dužina: 15.9194174","Trešnjevka - jug","Jarun","Zvono","Staklo",15.919473726477456,45.787009493563026
548,"Ulica Hrvoja Macanovića 5A, 10110, Zagreb, Grad Zagreb, HRV","Vrsta spremnika: STAKLO<br>Zemljopisna širina: 45.789166<br>Zemljopisna dužina: 15.9338504","Trešnjevka - jug","Gajevo","Zvono","Staklo",15.93398316966687,45.7891183061127
549,"Ulica Huga Badalića 13, 10110, Zagreb, Grad Zagreb, HRV","Vrsta spremnika: STAKLO<br>Zemljopisna širina: 45.8040255<br>Zemljopisna dužina: 15.958677","Trešnjevka - sjever","\"Silvije Strahimir Kranjčević\"","Zvono","Staklo",15.958646155221624,45.8039254640388
550,"ULICA HUGA EHRLICHA 13, 10010 ZAGREB","Vrsta spremnika: STAKLO<br>Zemljopisna širina: 45.7728289<br>Zemljopisna dužina: 15.9830497","Novi Zagreb - istok","Sopot","Zvono","Staklo",15.98304969947132,45.77282889938678
551,"ULICA IVANA CANKARA 10, 10000 ZAGREB","Vrsta spremnika: STAKLO<br>Zemljopisna širina: 45.8132989<br>Zemljopisna dužina: 15.9382815","Črnomerec","\"Bartol Kašić\"","Zvono","Staklo",15.938288205396384,45.81328581236431
553,"Trg Ivana, Antuna i Vladimira Mažuranića 1","Vrsta spremnika: STAKLO<br>Zemljopisna širina: 45.8091065<br>Zemljopisna dužina: 15.9721106","Donji Grad","MIMARA","Zvono","Staklo",15.970833868047741,45.808874664202186
555,"RADNIČKI DOL 22, 10000 ZAGREB","Vrsta spremnika: STAKLO<br>Zemljopisna širina: 45.8169332<br>Zemljopisna dužina: 15.9629737","Gornji Grad - Medveščak","\"Ivan Kukuljević - Sakcinski\"","Zvono","Staklo",15.963365302926295,45.81689955011476
556,"Odranska zavrtnica 23, Odra","Vrsta spremnika: STAKLO<br>Zemljopisna širina: 45.7337737<br>Zemljopisna dužina: 15.9930833","Novi Zagreb - zapad","Odra","Zvono","Staklo",15.993308605739042,45.73377369956993
557,"Ulica Ivana Pergošića 2, 10090, Zagreb, Grad Zagreb, HRV","Vrsta spremnika: STAKLO<br>Zemljopisna širina: 45.80617<br>Zemljopisna dužina: 15.891455","Stenjevec","Špansko - sjever","Zvono","Staklo",15.891433542198458,45.806141018766226
558,"ULICA IVANA RENDIĆA 28A, 10000 ZAGREB","Vrsta spremnika: STAKLO<br>Zemljopisna širina: 45.8178781<br>Zemljopisna dužina: 16.0059105","Maksimir","Mašićeva","Zvono","Staklo",16.006192132366312,45.817495817773846
559,"ULICA IVANA TKALČIĆA 91, 10000 ZAGREB","Vrsta spremnika: STAKLO<br>Zemljopisna širina: 45.8205417<br>Zemljopisna dužina: 15.97641","Gornji Grad - Medveščak","\"August Cesarec\"","Zvono","Staklo",15.976329533564675,45.82055665332981
561,"ULICA IVE TIJARDOVIĆA 44, 10104 ZAGREB","Vrsta spremnika: STAKLO<br>Zemljopisna širina: 45.7958575<br>Zemljopisna dužina: 15.8953178","Trešnjevka - jug","Prečko","Zvono","Staklo",15.895392901671023,45.79580700718724
563,"Ulica Ive Tijardovića bb, 10110, Zagreb, Grad Zagreb, HRV","Vrsta spremnika: STAKLO<br>Zemljopisna širina: 45.7957752<br>Zemljopisna dužina: 15.893172","Trešnjevka - jug","Prečko","Zvono","Staklo",15.893155906490717,45.79581260085748
564,"Ulica Ivice Drmića 16, 10020, Zagreb, Grad Zagreb, HRV","Vrsta spremnika: STAKLO<br>Zemljopisna širina: 45.7598895<br>Zemljopisna dužina: 15.9791594","Novi Zagreb - zapad","Sveta Klara","Zvono","Staklo",15.980162545761965,45.76000177614868
566,"Ulica Izidora Poljaka 32, 10040, Zagreb, Grad Zagreb, HRV","Vrsta spremnika: STAKLO<br>Zemljopisna širina: 45.8354283<br>Zemljopisna dužina: 16.0737983","Gornja Dubrava","Trnovčica","Zvono","Staklo",16.07379830033826,45.83542829953334
567,"ULICA JAKOVA GOTOVCA 1, 10000 ZAGREB","Vrsta spremnika: STAKLO<br>Zemljopisna širina: 45.8146411<br>Zemljopisna dužina: 15.9946668","Gornji Grad - Medveščak","Petrova","Zvono","Staklo",15.994532689628146,45.81480561071713
569,"PRILAZ BARUNA FILIPOVIĆA 10","Vrsta spremnika: STAKLO<br>Zemljopisna širina: 45.8116313<br>Zemljopisna dužina: 15.9454859","Črnomerec","\"Bartol Kašić\"","Zvono","Staklo",15.946891377075058,45.81154529966651
570,"ULICA JOSIPA ANTOLJAKA 4, DUMOVEC, SESVETE","Vrsta spremnika: STAKLO<br>Zemljopisna širina: 45.811046<br>Zemljopisna dužina: 16.1600665","","Dumovec","Zvono","Staklo",16.159991397787074,45.81055616904765
571,"ULICA JOSIPA HAMA 1, 10040 ZAGREB","Vrsta spremnika: STAKLO<br>Zemljopisna širina: 45.8356433<br>Zemljopisna dužina: 16.0491083","Gornja Dubrava","Klaka","Zvono","Staklo",16.049108300191822,45.835643299505676
573,"Ulica Josipa Prikrila 16, 10110, Zagreb, Grad Zagreb, HRV","Vrsta spremnika: STAKLO<br>Zemljopisna širina: 45.7868019<br>Zemljopisna dužina: 15.9368813","Trešnjevka - jug","Gajevo","Zvono","Staklo",15.936881299493152,45.7868018992707
574,"Lhotkina ulica 10, 10110, Zagreb, Grad Zagreb, HRV","Vrsta spremnika: STAKLO<br>Zemljopisna širina: 45.7933188<br>Zemljopisna dužina: 15.898698","Trešnjevka - jug","Prečko","Zvono","Staklo",15.899744061248523,45.793206589255625
575,"ULICA JOSIPA STADLERA 76, 10040 ZAGREB","Vrsta spremnika: STAKLO<br>Zemljopisna širina: 45.8358167<br>Zemljopisna dužina: 16.0748833","Gornja Dubrava","Trnovčica","Zvono","Staklo",16.07498924674355,45.83565785571439
580,"ULICA JURJA NEIDHARDTA 3, 10000 ZAGREB","Vrsta spremnika: STAKLO<br>Zemljopisna širina: 45.7854533<br>Zemljopisna dužina: 15.94017","Trešnjevka - jug","Horvati - Srednjaci","Zvono","Staklo",15.939842770457343,45.78518769788253
581,"ULICA KARLA METIKOŠA 3, 10000 ZAGREB","Vrsta spremnika: STAKLO<br>Zemljopisna širina: 45.7802954<br>Zemljopisna dužina: 16.0042886","Novi Zagreb - istok","Jakuševec","Zvono","Staklo",16.003998921344174,45.78029914067357
582,"Ostrogovićeva ulica 6, 10010, Zagreb, Grad Zagreb, HRV","Vrsta spremnika: STAKLO<br>Zemljopisna širina: 45.774035<br>Zemljopisna dužina: 15.9883267","Novi Zagreb - istok","Sopot","Zvono","Staklo",15.987956555741562,45.774252013260124
585,"ULICA KNEZA ADAMA 19, ADAMOVEC, SESVETE","Vrsta spremnika: STAKLO<br>Zemljopisna širina: 45.9054607<br>Zemljopisna dužina: 16.1582705","","Adamovec","Zvono","Staklo",16.158388517538278,45.9056557373603
586,"ULICA KNEZA ADAMA 7, ADAMOVEC, SESVETE","Vrsta spremnika: STAKLO<br>Zemljopisna širina: 45.9042976<br>Zemljopisna dužina: 16.1613998","","Adamovec","Zvono","Staklo",16.161458808125154,45.90483513080239
588,"ULICA KNEZA BRANIMIRA 47, 10000 ZAGREB","Vrsta spremnika: STAKLO<br>Zemljopisna širina: 45.8060002<br>Zemljopisna dužina: 15.989882","Donji Grad","\"Petar Krešimir IV.\"","Zvono","Staklo",15.988267309631148,45.80577209000274
589,"ULICA KNEZA DOMAGOJA 11, 10009 ZAGREB","Vrsta spremnika: STAKLO<br>Zemljopisna širina: 45.8068899<br>Zemljopisna dužina: 15.9866524","Donji Grad","\"Knez Mislav\"","","Staklo",15.986652400516675,45.80688989903781
590,"ULICA KNEZA LJUDEVITA POSAVSKOG 29, 10000 ZAGREB","Vrsta spremnika: STAKLO<br>Zemljopisna širina: 45.808741<br>Zemljopisna dužina: 15.9959169","Donji Grad","\"Kralj Zvonimir\"","","Staklo",15.995916899836766,45.80874099891226
591,"DRAŠKOVIĆEVA 33","Vrsta spremnika: STAKLO<br>Zemljopisna širina: 45.8081015<br>Zemljopisna dužina: 15.9843457","Donji Grad","\"Knez Mislav\"","","Staklo",15.983927274810053,45.808206200391126
594,"ULICA KSAVERA ŠANDORA ĐALSKOG, 10135 ZAGREB","Vrsta spremnika: STAKLO<br>Zemljopisna širina: 45.810265<br>Zemljopisna dužina: 16.0248583","Peščenica - Žitnjak","\"Bruno Bušić\"","Zvono","Staklo",16.024995093112683,45.81059404791706
595,"ULICA KSENIJE KANTOCI 3, 10020 ZAGREB","Vrsta spremnika: STAKLO<br>Zemljopisna širina: 45.7810935<br>Zemljopisna dužina: 15.9840935","Novi Zagreb - istok","Središće","","Staklo",15.984093499576135,45.78109349908134
600,"Sortina ulica 49, 10020, Zagreb, Grad Zagreb, HRV","Vrsta spremnika: STAKLO<br>Zemljopisna širina: 45.7755475<br>Zemljopisna dužina: 15.9746584","Novi Zagreb - zapad","Siget","Zvono","Staklo",15.97442236556184,45.77558117290783
601,"Sortina ulica 49, 10020, Zagreb, Grad Zagreb, HRV","Vrsta spremnika: STAKLO<br>Zemljopisna širina: 45.7754988<br>Zemljopisna dužina: 15.9737572","Novi Zagreb - zapad","Siget","Zvono","Papir",15.974347285926623,45.775569888231495
602,"PANDAKOVIĆEVA, 10000 ZAGREB","Vrsta spremnika: STAKLO<br>Zemljopisna širina: 45.7856217<br>Zemljopisna dužina: 15.929165","Trešnjevka - jug","Jarun","Zvono","Staklo",15.92912744964059,45.78554314137355
603,"ULICA MAHATME GANDHIJA 2, 10090 ZAGREB","Vrsta spremnika: STAKLO<br>Zemljopisna širina: 45.8151558<br>Zemljopisna dužina: 15.8774661","Podsused - Vrapče","Gajnice","Zvono","Staklo",15.87753047277786,45.81515953799254
604,"Ulica Majke Terezije 12, 10090, Zagreb, Grad Zagreb, HRV","Vrsta spremnika: STAKLO<br>Zemljopisna širina: 45.814525<br>Zemljopisna dužina: 15.8982967","Podsused - Vrapče","Vrapče - centar","Zvono","Staklo",15.898315475194767,45.81449882703004
607,"ULICA MANE JARNOVIĆA 106, 10000 ZAGREB","Vrsta spremnika: STAKLO<br>Zemljopisna širina: 45.7937615<br>Zemljopisna dužina: 15.8940469","Trešnjevka - jug","Prečko","Zvono","Staklo",15.893788067472743,45.79382227877786
609,"Ulica Mane Jarnovića 13, 10110, Zagreb, Grad Zagreb, HRV","Vrsta spremnika: STAKLO<br>Zemljopisna širina: 45.7908289<br>Zemljopisna dužina: 15.9013972","Trešnjevka - jug","Prečko","Zvono","Staklo",15.901496441770457,45.790754088793086
611,"ULICA MARIJANA DERENČINA 25, 10000 ZAGREB","Vrsta spremnika: STAKLO<br>Zemljopisna širina: 45.8108987<br>Zemljopisna dužina: 15.9941735","Donji Grad","\"Pavao Šubić\"","Zvono","Staklo",15.994034025368155,45.81076408997085
612,"Ulica Mladena Vodičke, 10110, Zagreb, Grad Zagreb, HRV","Vrsta spremnika: STAKLO<br>Zemljopisna širina: 45.7868206<br>Zemljopisna dužina: 15.9411621","Trešnjevka - jug","Horvati - Srednjaci","Zvono","Staklo",15.940974344757954,45.787067489538536
613,"ULICA MARIJE SNIJEŽNE, 10040 ZAGREB","Vrsta spremnika: STAKLO<br>Zemljopisna širina: 45.90504<br>Zemljopisna dužina: 16.0608367","","Čučerje","","Staklo",16.06083670006088,45.905039999137315
615,"ULICA MARTINA PUŠTEKA 2, 10000 ZAGREB","Vrsta spremnika: STAKLO<br>Zemljopisna širina: 45.7890575<br>Zemljopisna dužina: 15.9332979","Trešnjevka - jug","Gajevo","Zvono","Staklo",15.93329789998825,45.7890574993663
616,"ULICA MARTINA PUŠTEKA 1, 10000 ZAGREB","Vrsta spremnika: STAKLO<br>Zemljopisna širina: 45.7882608<br>Zemljopisna dužina: 15.9327829","Trešnjevka - jug","Gajevo","Zvono","Staklo",15.933107446984197,45.788541349033
618,"ULICA MATIJE JANDRIĆA 14, 10000 ZAGREB","Vrsta spremnika: STAKLO<br>Zemljopisna širina: 45.8349286<br>Zemljopisna dužina: 15.9765994","Gornji Grad - Medveščak","Gupčeva zvijezda","Zvono","Staklo",15.976599399375758,45.83492859936271
619,"ULICA METELA OŽEGOVIĆA 2, 10000 ZAGREB","Vrsta spremnika: STAKLO<br>Zemljopisna širina: 45.8150974<br>Zemljopisna dužina: 15.9997416","Maksimir","\"Eugen Kvaternik\"","Zvono","Staklo",15.999741600424372,45.815097399190755
621,"ULICA MIJE KIŠPATIĆA 7A, 10000 ZAGREB","Vrsta spremnika: STAKLO<br>Zemljopisna širina: 45.823102<br>Zemljopisna dužina: 16.0060569","Maksimir","Dobri Dol","Zvono","Staklo",16.006056900199248,45.82310199921937
622,"ULICA MILANA ČALOGOVIĆA 1, 10010 ZAGREB","Vrsta spremnika: STAKLO<br>Zemljopisna širina: 45.7658985<br>Zemljopisna dužina: 16.0018044","Novi Zagreb - istok","Dugave","Zvono","Staklo",16.00180440029053,45.7658984988187
623,"ULICA MILANA ČALOGOVIĆA 14, 10010 ZAGREB","Vrsta spremnika: STAKLO<br>Zemljopisna širina: 45.7661256<br>Zemljopisna dužina: 16.0025908","Novi Zagreb - istok","Dugave","Zvono","Staklo",16.00280537635375,45.766432454988504
624,"Ulica Milovana Gavazzija 11B, 10040, Zagreb, Grad Zagreb, HRV","Vrsta spremnika: STAKLO<br>Zemljopisna širina: 45.8361317<br>Zemljopisna dužina: 16.0632867","Gornja Dubrava","Studentski grad","Zvono","Staklo",16.06210652782716,45.836628778672065
625,"Ulica Milovana Kovačevića 17, 10010, Zagreb, Grad Zagreb, HRV","Vrsta spremnika: STAKLO<br>Zemljopisna širina: 45.7738051<br>Zemljopisna dužina: 15.9857135","Novi Zagreb - istok","Sopot","Zvono","Staklo",15.985579389411235,45.77393605643764
626,"Mrkšina ulica 69, 10020, Zagreb, Grad Zagreb, HRV","Vrsta spremnika: STAKLO<br>Zemljopisna širina: 45.7534578<br>Zemljopisna dužina: 15.9670722","Novi Zagreb - zapad","Sveta Klara","Zvono","Staklo",15.96707220028772,45.75345779962774
628,"ULICA MLADOSTI, ZAGREB","Vrsta spremnika: STAKLO<br>Zemljopisna širina: 45.74852<br>Zemljopisna dužina: 15.9846883","Novi Zagreb - istok","Buzin","Zvono","Staklo",15.988851088894146,45.74880449192667
629,"ULICA NEZNANE JUNAKINJE 1, 10000 ZAGREB","Vrsta spremnika: STAKLO<br>Zemljopisna širina: 45.8069388<br>Zemljopisna dužina: 15.9925052","Donji Grad","\"Petar Krešimir IV.\"","Zvono","Staklo",15.992269165075292,45.80711829142321
630,"ULICA NIKE GRŠKOVIĆA 28, 10009 ZAGREB","Vrsta spremnika: STAKLO<br>Zemljopisna širina: 45.8212997<br>Zemljopisna dužina: 15.9812182","Gornji Grad - Medveščak","Medveščak","Zvono","Staklo",15.9812182004467,45.82129969953563
632,"ULICA NIKOLE BOŽIDAREVIĆA 9, 10000 ZAGREB","Vrsta spremnika: STAKLO<br>Zemljopisna širina: 45.8206447<br>Zemljopisna dužina: 16.0088985","Maksimir","Mašićeva","Zvono","Staklo",16.00871208636013,45.820541890655285
633,"Ulica Nikole Kopernika 7, 10010, Zagreb, Grad Zagreb, HRV","Vrsta spremnika: STAKLO<br>Zemljopisna širina: 45.7727717<br>Zemljopisna dužina: 15.9984367","Novi Zagreb - istok","Travno","Zvono","Staklo",15.998613725526152,45.77275673271482
638,"ULICA PAVLA HATZA 6, 10000 ZAGREB","Vrsta spremnika: STAKLO<br>Zemljopisna širina: 45.8075875<br>Zemljopisna dužina: 15.9801703","Donji Grad","\"August Šenoa\"","Zvono","Staklo",15.979891350279123,45.80751271145565
639,"Ulica Pavla Lončara 11, 10360, Sesvete, Zagreb, Grad Zagreb, HRV","Vrsta spremnika: STAKLO<br>Zemljopisna širina: 45.8298519<br>Zemljopisna dužina: 16.113222","Sesvete","Gajišće","Zvono","Staklo",16.113222000032312,45.82985189953465
640,"ULICA PAVLA RADIĆA 74, 10000 ZAGREB","Vrsta spremnika: STAKLO<br>Zemljopisna širina: 45.8190867<br>Zemljopisna dužina: 15.9753334","Gornji Grad - Medveščak","Gornji grad","Zvono","Staklo",15.975403137292156,45.81910913062951
641,"Miškinina ulica 12, 10010, Zagreb, Grad Zagreb, HRV","Vrsta spremnika: STAKLO<br>Zemljopisna širina: 45.7646857<br>Zemljopisna dužina: 15.9858625","Novi Zagreb - istok","Sloboština","Zvono","Staklo",15.985862499484293,45.76468569957744
642,"Miškinina ulica 28, 10010, Zagreb, Grad Zagreb, HRV","Vrsta spremnika: STAKLO<br>Zemljopisna širina: 45.7624255<br>Zemljopisna dužina: 15.9877897","Novi Zagreb - istok","Sloboština","Zvono","Staklo",15.987698504468641,45.76236187850481
643,"Miškinina ulica 24, 10010, Zagreb, Grad Zagreb, HRV","Vrsta spremnika: STAKLO<br>Zemljopisna širina: 45.7632862<br>Zemljopisna dužina: 15.9884173","Novi Zagreb - istok","Sloboština","Zvono","Staklo",15.988476308024627,45.7630915970396
644,"Ulica Vladimira Varićaka 15, Zagreb","Vrsta spremnika: STAKLO<br>Zemljopisna širina: 45.7642067<br>Zemljopisna dužina: 15.9878581","Novi Zagreb - istok","Sloboština","Zvono","Staklo",15.987862123544764,45.76432364561696
645,"Ulica Predraga Heruca 1, 10110, Zagreb, Grad Zagreb, HRV","Vrsta spremnika: STAKLO<br>Zemljopisna širina: 45.7848121<br>Zemljopisna dužina: 15.9234103","Trešnjevka - jug","Jarun","Zvono","Staklo",15.923266801780144,45.784803682426634
646,"Ulica Radoslava Cimermana 56, 10020, Zagreb, Grad Zagreb, HRV","Vrsta spremnika: STAKLO<br>Zemljopisna širina: 45.7856663<br>Zemljopisna dužina: 15.9641135","Novi Zagreb - zapad","Kajzerica","Zvono","Staklo",15.964113499815346,45.78566629882773
648,"ULICA RADOVANA NIKŠIĆA 19, SESVETSKA SELNICA, SESVETE","Vrsta spremnika: STAKLO<br>Zemljopisna širina: 45.8167408<br>Zemljopisna dužina: 16.1285542","","Sesvetska Selnica","Zvono","Staklo",16.128613208687693,45.81655386084102
651,"ULICA SAVEZNE REPUBLIKE NJEMAČKE 4, 10020 ZAGREB","Vrsta spremnika: STAKLO<br>Zemljopisna širina: 45.779885<br>Zemljopisna dužina: 15.9892863","Novi Zagreb - istok","Središće","Zvono","Staklo",15.989120003116463,45.78002342486098
654,"GOSPODSKA 18","Vrsta spremnika: STAKLO<br>Zemljopisna širina: 45.8147196<br>Zemljopisna dužina: 15.8888875","Podsused - Vrapče","Stenjevec - sjever","Zvono","Staklo",15.8868946189374,45.814429834145336
655,"ULICA ŠIME DEVČIĆA 2, 10000 ZAGREB","Vrsta spremnika: STAKLO<br>Zemljopisna širina: 45.787782<br>Zemljopisna dužina: 15.9392363","Trešnjevka - jug","Horvati - Srednjaci","Zvono","Staklo",15.939228253712267,45.78786616525625
656,"ULICA STJEPANA BABONIĆA 89, 10009 ZAGREB","Vrsta spremnika: STAKLO<br>Zemljopisna širina: 45.821453<br>Zemljopisna dužina: 15.9883314","Gornji Grad - Medveščak","Šalata","Zvono","Staklo",15.988331400195285,45.82145299888285
657,"Gomboševa ulica 26, 10010, Zagreb, Grad Zagreb, HRV","Vrsta spremnika: STAKLO<br>Zemljopisna širina: 45.7628584<br>Zemljopisna dužina: 16.0070995","Novi Zagreb - istok","Hrelić","Zvono","Staklo",16.007099500376803,45.76285839936613
658,"Ulica Stjepana Gradića 13, 10010, Zagreb, Grad Zagreb, HRV","Vrsta spremnika: STAKLO<br>Zemljopisna širina: 45.7669548<br>Zemljopisna dužina: 15.9873761","Novi Zagreb - istok","Sloboština","Zvono","Staklo",15.987408287155066,45.76693608852099
659,"ULICA STJEPANA GRADIĆA 4, 10010 ZAGREB","Vrsta spremnika: STAKLO<br>Zemljopisna širina: 45.7660032<br>Zemljopisna dužina: 15.9873385","Novi Zagreb - istok","Sloboština","","Staklo",15.987338500027281,45.766003199218865
660,"ULICA STJEPANA GRADIĆA, 10010 ZAGREB","Vrsta spremnika: STAKLO<br>Zemljopisna širina: 45.7673501<br>Zemljopisna dužina: 15.9889198","Novi Zagreb - istok","Sloboština","Zvono","Staklo",15.988994901380098,45.76731642028065
661,"ULICA STJEPANA NEŽIĆA 2E, 10000 ZAGREB","Vrsta spremnika: STAKLO<br>Zemljopisna širina: 45.7661683<br>Zemljopisna dužina: 15.98263","Novi Zagreb - istok","Sloboština","Zvono","Staklo",15.982629999696476,45.766168299002814
662,"ULICA STJEPANA NEŽIĆA 2E, 10000 ZAGREB","Vrsta spremnika: STAKLO<br>Zemljopisna širina: 45.7659464<br>Zemljopisna dužina: 15.982972","Novi Zagreb - istok","Sloboština","Zvono","Papir",15.982682321318856,45.76614099173475
663,"ULICA SVETOG MATEJA 1, 10010 ZAGREB","Vrsta spremnika: STAKLO<br>Zemljopisna širina: 45.765916<br>Zemljopisna dužina: 15.9967434","Novi Zagreb - istok","Dugave","Zvono","Staklo",15.996743400621138,45.76591599918723
664,"ULICA SVETOG MATEJA 110, 10010 ZAGREB","Vrsta spremnika: STAKLO<br>Zemljopisna širina: 45.7664748<br>Zemljopisna dužina: 16.0010372","Novi Zagreb - istok","Dugave","Zvono","Staklo",16.00103720037707,45.76647479906743
665,"ULICA SVETOG MATEJA 120, 10010 ZAGREB","Vrsta spremnika: STAKLO<br>Zemljopisna širina: 45.7675025<br>Zemljopisna dužina: 16.0004824","Novi Zagreb - istok","Dugave","Zvono","Staklo",16.000439484305137,45.76757734018699
666,"Ulica sv. Mateja 85, 10010, Zagreb, Grad Zagreb, HRV","Vrsta spremnika: STAKLO<br>Zemljopisna širina: 45.7662951<br>Zemljopisna dužina: 16.0001092","Novi Zagreb - istok","Dugave","Zvono","Staklo",16.00010920060163,45.766295099436896
667,"ULICA SVETOG MATEJA 79, 10010 ZAGREB","Vrsta spremnika: STAKLO<br>Zemljopisna širina: 45.7625978<br>Zemljopisna dužina: 15.9970944","Novi Zagreb - istok","Dugave","Zvono","Papir",15.997094400298034,45.762597799590345
668,"Ulica sv. Mateja 47, 10010, Zagreb, Grad Zagreb, HRV","Vrsta spremnika: STAKLO<br>Zemljopisna širina: 45.762255<br>Zemljopisna dužina: 15.994965","Novi Zagreb - istok","Dugave","Zvono","Papir",15.994433922218661,45.762393468646266
669,"ULICA SVETOG NIKOLE TAVELIĆA 14, 10000 ZAGREB","Vrsta spremnika: STAKLO<br>Zemljopisna širina: 45.81215<br>Zemljopisna dužina: 15.9266007","Črnomerec","Kustošija - centar","Zvono","Staklo",15.926600699901389,45.812149999668215
670,"Ulica Davorina Bazjanca 13, 10110, Zagreb, Grad Zagreb, HRV","Vrsta spremnika: STAKLO<br>Zemljopisna širina: 45.7916235<br>Zemljopisna dužina: 15.9494233","Trešnjevka - jug","Knežija","Zvono","Staklo",15.949042425842702,45.79287653515627
671,"ULICA TOME ROSANDIĆA 10, 10040 ZAGREB","Vrsta spremnika: STAKLO<br>Zemljopisna širina: 45.83364<br>Zemljopisna dužina: 16.083125","Gornja Dubrava","Dubec","Zvono","Staklo",16.0830767207931,45.83365868723207
672,"ULICA TOMISLAVA MARETIĆA 17, 10010 ZAGREB","Vrsta spremnika: STAKLO<br>Zemljopisna širina: 45.7773033<br>Zemljopisna dužina: 15.9989204","Novi Zagreb - istok","Utrine","Zvono","Staklo",15.999118883173853,45.77751094668749
673,"ULICA VANJE RADAUŠA 11, 10000 ZAGREB","Vrsta spremnika: STAKLO<br>Zemljopisna širina: 45.8208251<br>Zemljopisna dužina: 16.0264242","Maksimir","Maksimirska naselja","Zvono","Staklo",16.026398718792013,45.820894260923495
674,"Ulica Viktora Kovačića, 10010, Zagreb, Grad Zagreb, HRV","Vrsta spremnika: STAKLO<br>Zemljopisna širina: 45.7767701<br>Zemljopisna dužina: 15.9831546","Novi Zagreb - istok","Sopot","Zvono","Staklo",15.9830258543394,45.77671210666956
676,"Ulica Vile Velebita 36, 10040, Zagreb, Grad Zagreb, HRV","Vrsta spremnika: STAKLO<br>Zemljopisna širina: 45.8384786<br>Zemljopisna dužina: 16.0619499","Gornja Dubrava","Studentski grad","Zvono","Staklo",16.061906984295202,45.838609404572736
677,"ULICA VINCENTA IZ KASTVA 10, 10000 ZAGREB","Vrsta spremnika: STAKLO<br>Zemljopisna širina: 45.7886348<br>Zemljopisna dužina: 15.9440321","Trešnjevka - jug","Horvati - Srednjaci","Zvono","Staklo",15.94378667771218,45.788578689218866
678,"ULICA VINCENTA IZ KASTVA 2, 10000 ZAGREB","Vrsta spremnika: STAKLO<br>Zemljopisna širina: 45.7888892<br>Zemljopisna dužina: 15.9415537","Trešnjevka - jug","Horvati - Srednjaci","Zvono","Staklo",15.941545653347342,45.78887236664005
679,"ULICA VINKA KINDERA 28, DRENČEC, SESVETE","Vrsta spremnika: STAKLO<br>Zemljopisna širina: 45.8366047<br>Zemljopisna dužina: 16.2060177","","Drenčec","Zvono","Staklo",16.207085218591082,45.83664954844544
680,"ULICA VINKA KINDERA BB, DRENČEC, SESVETE","Vrsta spremnika: STAKLO<br>Zemljopisna širina: 45.8369161<br>Zemljopisna dužina: 16.2042161","","Drenčec","Zvono","Staklo",16.20254240211771,45.83718892961756
683,"Avenija Veceslava Holjevca 38, 10020, Zagreb, Grad Zagreb, HRV","Vrsta spremnika: STAKLO<br>Zemljopisna širina: 45.7669011<br>Zemljopisna dužina: 15.9718788","Novi Zagreb - zapad","Siget","Zvono","Staklo",15.971878800482441,45.76690109967562
684,"ULICA HERMANA BUŽANA 8A , 10000 ZAGREB","Vrsta spremnika: STAKLO<br>Zemljopisna širina: 45.8101083<br>Zemljopisna dužina: 16.0036817","Peščenica - Žitnjak","Peščenica","Zvono","Staklo",16.003770212570053,45.810129799897
685,"ULICA VJEKOSLAVA HEINZELA 6, 10000 ZAGREB","Vrsta spremnika: STAKLO<br>Zemljopisna širina: 45.8138337<br>Zemljopisna dužina: 15.9977838","Maksimir","\"Pavao Šubić\"","Zvono","Staklo",15.998009105616982,45.81368414065243
686,"ULICA VJEKOSLAVA KLAIĆA 4, 10000 ZAGREB","Vrsta spremnika: STAKLO<br>Zemljopisna širina: 45.8091002<br>Zemljopisna dužina: 15.9664663","Donji Grad","\"Mimara\"","Zvono","Staklo",15.966498487066731,45.80897680337129
687,"ULICA VJEKOSLAVA KLAIĆA 50, 10000 ZAGREB","Vrsta spremnika: STAKLO<br>Zemljopisna širina: 45.8092572<br>Zemljopisna dužina: 15.9615273","Donji Grad","\"Petar Zrinski\"","Zvono","Staklo",15.96084601839661,45.80939181276115
688,"ULICA VJEKOSLAVA KLAIĆA 68, 10000 ZAGREB","Vrsta spremnika: STAKLO<br>Zemljopisna širina: 45.8095376<br>Zemljopisna dužina: 15.9582573","Donji Grad","\"Petar Zrinski\"","Zvono","Staklo",15.958235842300875,45.80953759920803
